[{"name":null,"voltage":"132000;33000","operator":null,"latitude":51.4374246,"longitude":1.6221121},{"name":null,"voltage":"132000;33000","operator":null,"latitude":51.7298011,"longitude":1.2383998},{"name":"Substation for Barrow Windfarm","voltage":"132000;33000","operator":null,"latitude":53.9874608,"longitude":-3.2701138},{"name":null,"voltage":"132000;33000","operator":null,"latitude":54.0785193,"longitude":-3.4111891},{"name":"Botley Wood","voltage":"400000;132000","operator":"National Grid","latitude":50.8847952,"longitude":-1.2325398},{"name":"Elstree Substation","voltage":"400000;275000;132000","operator":"National Grid Electricity Transmission","latitude":51.6604005,"longitude":-0.3434414},{"name":"Mill Hill Substation","voltage":"275000;132000","operator":"National Grid","latitude":51.6178468,"longitude":-0.2091268},{"name":"Barnet Substation","voltage":"132000","operator":"UK Power Networks","latitude":51.6611853,"longitude":-0.2108165},{"name":"Northfleet East Substation","voltage":"400000;132000","operator":null,"latitude":51.4283103,"longitude":0.3298848},{"name":"Lovedean Substation","voltage":"400000;132000","operator":null,"latitude":50.9170377,"longitude":-1.0397624},{"name":"Welwyn Substation","voltage":"132000;25000","operator":null,"latitude":51.7878817,"longitude":-0.2096124},{"name":"Netley Common Substation","voltage":"132000;33000;11000","operator":"SSE Power Distribution","latitude":50.9055407,"longitude":-1.3249437},{"name":null,"voltage":"132000;33000","operator":null,"latitude":53.2659785,"longitude":-2.9599846},{"name":"Waltham Cross Substation","voltage":"400000;275000","operator":null,"latitude":51.7141587,"longitude":-0.0116024},{"name":"Marchwood Substation","voltage":"132000","operator":null,"latitude":50.8973396,"longitude":-1.4434705},{"name":"Millbrook Substation","voltage":"132000","operator":null,"latitude":50.9182136,"longitude":-1.4656648},{"name":"Cowley Substation","voltage":"400000;132000","operator":null,"latitude":51.7111485,"longitude":-1.1904964},{"name":"Sheffield City Substation","voltage":"275000;33000","operator":null,"latitude":53.3747583,"longitude":-1.4786113},{"name":"Tottenham Substation","voltage":"275000","operator":"National Grid","latitude":51.6043733,"longitude":-0.0475914},{"name":"Capenhurst Substation","voltage":"400000;275000;132000","operator":"National Grid Electricity Transmission","latitude":53.2674672,"longitude":-2.9471574},{"name":"Frodsham Substation","voltage":"400000;275000;132000","operator":null,"latitude":53.3092259,"longitude":-2.716178},{"name":null,"voltage":"400000","operator":null,"latitude":53.2325326,"longitude":-3.0548441},{"name":"West Quay Substation","voltage":"132000;33000","operator":null,"latitude":50.9059422,"longitude":-1.4122915},{"name":"West Ham Substation","voltage":"400000;132000","operator":"National Grid; UK Power Networks","latitude":51.5195816,"longitude":0.0011015},{"name":"Brimsdown Substation","voltage":"275000;132000","operator":"National Grid PLC","latitude":51.663708,"longitude":-0.0244924},{"name":"Warley Substation","voltage":"275000;132000","operator":"National Grid","latitude":51.5527158,"longitude":0.3007084},{"name":"Longford Substation","voltage":"132000;33000","operator":null,"latitude":51.4801911,"longitude":-0.5050478},{"name":"Iver Substation","voltage":"400000;275000;132000;66000","operator":"National Grid Electricity Transmission","latitude":51.5434023,"longitude":-0.4978855},{"name":"Iver Substation","voltage":"132000","operator":null,"latitude":51.5416778,"longitude":-0.4973463},{"name":null,"voltage":"132000","operator":null,"latitude":51.5267043,"longitude":-0.6236754},{"name":null,"voltage":"132000","operator":null,"latitude":51.5074475,"longitude":-0.6142803},{"name":null,"voltage":"132000","operator":null,"latitude":51.5044481,"longitude":-0.6071649},{"name":"Watford South Substation","voltage":"275000;132000","operator":"National Grid Electricity Transmission","latitude":51.6426315,"longitude":-0.4044582},{"name":"Hollywell Grid","voltage":"132000;33000;11000","operator":"UK Power Networks","latitude":51.6462141,"longitude":-0.4077274},{"name":"Hatch End Grid Substation","voltage":"132000","operator":"UK Power Networks","latitude":51.6163729,"longitude":-0.3826406},{"name":"Harrow North Grid Substation","voltage":"132000;33000","operator":"UK Power Networks","latitude":51.5801766,"longitude":-0.3668998},{"name":"Laleham Substation","voltage":"275000;132000","operator":"National Grid Electricity Transmission","latitude":51.4239374,"longitude":-0.470265},{"name":"Staines Substation","voltage":"132000;33000","operator":null,"latitude":51.4385621,"longitude":-0.4964024},{"name":"Byfleet Substation","voltage":"132000;33000","operator":"UK Power Networks","latitude":51.3393554,"longitude":-0.5074249},{"name":null,"voltage":"132000","operator":null,"latitude":51.332464,"longitude":-0.4849465},{"name":"Leatherhead Substation","voltage":"132000;33000","operator":null,"latitude":51.3027551,"longitude":-0.3326575},{"name":"Beddington Substation","voltage":"400000;275000;132000","operator":null,"latitude":51.3733077,"longitude":-0.1275594},{"name":"Wimbledon Substation","voltage":"275000","operator":"National Grid","latitude":51.430873,"longitude":-0.1881823},{"name":"Croydon A Substation","voltage":"132000;33000","operator":null,"latitude":51.3767889,"longitude":-0.1126841},{"name":"Croydon B Substation","voltage":"132000;33000","operator":null,"latitude":51.3789033,"longitude":-0.1231207},{"name":"Rowdown Substation","voltage":"400000","operator":"National Grid","latitude":51.3518846,"longitude":-0.0037727},{"name":"Chilling Headhouse","voltage":"400000","operator":null,"latitude":50.8348726,"longitude":-1.2909237},{"name":"Fort Widley","voltage":"132000;33000","operator":"SSE Power Distribution","latitude":50.8649211,"longitude":-1.0661668},{"name":"Chessington Substation","voltage":"275000;132000","operator":null,"latitude":51.3436956,"longitude":-0.3229511},{"name":null,"voltage":"132000;33000;11000","operator":null,"latitude":51.723745,"longitude":-1.188942},{"name":null,"voltage":"132000;33000","operator":null,"latitude":50.8330689,"longitude":-1.1985565},{"name":"Nechells East Transmission Substation","voltage":"275000;132000","operator":"National Grid Electricity Transmission","latitude":52.5068623,"longitude":-1.8522416},{"name":"Nottingham Substation","voltage":"132000;33000","operator":null,"latitude":52.9318478,"longitude":-1.1625159},{"name":"Deeside Substation","voltage":"132000","operator":"SP Energy Networks","latitude":53.2271488,"longitude":-3.0727063},{"name":"Chester","voltage":"132000;33000","operator":null,"latitude":53.2157288,"longitude":-2.9126359},{"name":"Hawarden","voltage":"132000;33000","operator":"SP Energy Networks","latitude":53.1861108,"longitude":-3.0513975},{"name":"Nursling Substation","voltage":"400000;132000","operator":null,"latitude":50.9418874,"longitude":-1.4872055},{"name":null,"voltage":"132000;33000","operator":null,"latitude":50.949651,"longitude":-1.4718623},{"name":"Wymondley Substation","voltage":"400000;132000;33000","operator":null,"latitude":51.9277147,"longitude":-0.2490474},{"name":"Sub Station","voltage":"132000","operator":null,"latitude":50.8366993,"longitude":-1.3567851},{"name":"Sub Station","voltage":"132000","operator":null,"latitude":50.8385853,"longitude":-1.3743399},{"name":null,"voltage":"132000","operator":null,"latitude":50.8466733,"longitude":-1.3791255},{"name":"Eastbourne Grid132 KV","voltage":"132000","operator":"UK Power Networks","latitude":50.7832982,"longitude":0.2976316},{"name":"Templars Way","voltage":"132000","operator":null,"latitude":50.970231,"longitude":-1.3935674},{"name":"Ferrybridge B Substation","voltage":"132000","operator":null,"latitude":53.7221406,"longitude":-1.2781518},{"name":"Wakefield B","voltage":"132000","operator":null,"latitude":53.6743295,"longitude":-1.469965},{"name":null,"voltage":"132000;33000","operator":null,"latitude":51.769582,"longitude":-1.2121538},{"name":"Rodley","voltage":"132000","operator":null,"latitude":53.8212134,"longitude":-1.6642775},{"name":"Kirkstall A","voltage":"275000;132000","operator":"National Grid Electricity Transmission","latitude":53.8062892,"longitude":-1.5979853},{"name":"Thornton Substation","voltage":"400000","operator":"National Grid Electricity Transmission","latitude":53.9003436,"longitude":-0.8221315},{"name":"Ocker Hill Substation A","voltage":"275000","operator":"National Grid Electricity Distribution","latitude":52.5421377,"longitude":-2.0294956},{"name":"Ocker Hill Transmission Station","voltage":"132000","operator":"National Grid Electricity Distribution","latitude":52.5412276,"longitude":-2.0327994},{"name":"Shenfield Substation","voltage":"132000;33000;25000","operator":"UK Power Networks","latitude":51.6405336,"longitude":0.3598708},{"name":"Burwell Substation","voltage":"400000;132000","operator":null,"latitude":52.2808426,"longitude":0.3126041},{"name":null,"voltage":"132000","operator":null,"latitude":51.6223475,"longitude":-0.7767451},{"name":"Sowton Substation","voltage":"132000;33000","operator":"National Grid Electricity Distribution","latitude":50.7264695,"longitude":-3.4661992},{"name":"Exeter Substation","voltage":"400000;132000","operator":"National Grid","latitude":50.7675757,"longitude":-3.4052988},{"name":"Milton Substation","voltage":"132000;25000","operator":"UK Power Networks","latitude":52.2327619,"longitude":0.1671212},{"name":"Crookston Substation","voltage":"132000","operator":"SP Energy Networks","latitude":55.8212062,"longitude":-4.3647428},{"name":"Smallfield Substation","voltage":"132000","operator":null,"latitude":51.1776859,"longitude":-0.1314164},{"name":"Leigh Substation","voltage":"132000;33000","operator":null,"latitude":51.201901,"longitude":-0.2177503},{"name":"Three Bridges Main","voltage":"132000","operator":"UK Power Networks","latitude":51.1147993,"longitude":-0.1631532},{"name":"Three Bridges Local","voltage":"132000;33000;11000","operator":"UK Power Networks","latitude":51.1173552,"longitude":-0.1627032},{"name":"Histon Substation","voltage":"132000;33000","operator":"UK Power Networks","latitude":52.2459034,"longitude":0.1024143},{"name":"Longton Bulk Supply Point","voltage":"132000","operator":"National Grid Electricity Distribution","latitude":52.9744469,"longitude":-2.1335552},{"name":"Abham Substation","voltage":"400000;132000","operator":null,"latitude":50.4716794,"longitude":-3.7303549},{"name":"Bournville Substation","voltage":"132000","operator":null,"latitude":52.4275543,"longitude":-1.9260835},{"name":"Kaimes Substation","voltage":"275000","operator":null,"latitude":55.8915356,"longitude":-3.1654061},{"name":"Currie Substation","voltage":"275000;132000;25000","operator":"SP Energy Networks","latitude":55.9022861,"longitude":-3.3088361},{"name":"Cardiff West Grid Substation","voltage":"132000;33000","operator":"National Grid Electricity Distribution Plc","latitude":51.4698949,"longitude":-3.2094967},{"name":"Salisbury Grid Substation","voltage":"132000","operator":"Scottish and Southern Energy","latitude":51.082044,"longitude":-1.8435485},{"name":"Droylsden","voltage":"132000","operator":null,"latitude":53.4866343,"longitude":-2.1933374},{"name":"Kitwell Substation","voltage":"275000;132000","operator":"National Grid Electricity Transmission","latitude":52.4311321,"longitude":-2.0133396},{"name":"Exeter City Substation","voltage":"132000;33000","operator":"National Grid Electricity Distribution","latitude":50.7120613,"longitude":-3.5283931},{"name":"Cliff Quay Substation","voltage":"132000","operator":"UK Power Networks","latitude":52.0355488,"longitude":1.163626},{"name":"Bromley Substation","voltage":"132000;33000","operator":"UK Power Networks","latitude":51.3919283,"longitude":0.0679957},{"name":"Dutton Substation","voltage":"132000","operator":"Scottish Power","latitude":53.3115866,"longitude":-2.6648614},{"name":"Ninfield Substation","voltage":"400000;132000","operator":null,"latitude":50.8812773,"longitude":0.4485446},{"name":"Ipswich Grid (West End Road)","voltage":"132000","operator":null,"latitude":52.0559697,"longitude":1.1361026},{"name":null,"voltage":"132000","operator":null,"latitude":53.3194224,"longitude":-2.7445544},{"name":"Percival Lane Substation","voltage":"132000","operator":"SP Energy Networks","latitude":53.3322979,"longitude":-2.7555116},{"name":"Rayleigh Main Substation","voltage":"400000;132000","operator":"National Grid","latitude":51.5937902,"longitude":0.5664507},{"name":"Rayleigh Local Substation","voltage":"132000","operator":null,"latitude":51.5870052,"longitude":0.5950104},{"name":"Fulbourn Grid Substation","voltage":"132000;33000;11000","operator":"UK Power Networks","latitude":52.1886193,"longitude":0.1869802},{"name":"Thanet Grid","voltage":"132000;33000;11000","operator":"UK Power Networks","latitude":51.3680428,"longitude":1.389765},{"name":"Toton Substation","voltage":"132000;33000;11000","operator":"National Grid Electricity Distribution","latitude":52.9163473,"longitude":-1.2650388},{"name":"Kirkby Substation","voltage":"275000;132000","operator":"National Grid Electricity Transmission","latitude":53.4690886,"longitude":-2.8482974},{"name":"Solihull Local No 1","voltage":"132000","operator":"National Grid Electricity Distribution Plc","latitude":52.4147299,"longitude":-1.7800647},{"name":"St John's Wood substation","voltage":"400000;275000;132000;66000","operator":"National Grid","latitude":51.5275497,"longitude":-0.1704013},{"name":"Bold Substation","voltage":"132000","operator":"Scottish Power","latitude":53.4339514,"longitude":-2.6943655},{"name":"Sankey Bridges Substation","voltage":"132000","operator":"SP Energy Networks","latitude":53.3825334,"longitude":-2.6241671},{"name":"Bustleholme Substation","voltage":"400000;275000;132000","operator":"National Grid","latitude":52.5532067,"longitude":-1.9620906},{"name":"Kitwell Oldbury cct 275kV Sealing End","voltage":"275000","operator":null,"latitude":52.4968824,"longitude":-2.0282351},{"name":"Trowse Grid Substation","voltage":"132000;33000","operator":"UK Power Networks","latitude":52.6077155,"longitude":1.308142},{"name":"Earlham Grid","voltage":"132000;33000","operator":"UK Power Networks","latitude":52.6296485,"longitude":1.2279582},{"name":"Sighthilll Substation","voltage":"275000;33000","operator":"SP Transmission","latitude":55.9284301,"longitude":-3.3051827},{"name":null,"voltage":"132000;33000","operator":null,"latitude":51.2698088,"longitude":-1.0676592},{"name":"Norwich Main Substation","voltage":"400000;132000","operator":"EDF Energy Networks Ltd.","latitude":52.5740292,"longitude":1.2722721},{"name":"Portobello Substation","voltage":"275000;33000;25000","operator":"SP Energy Networks","latitude":55.9533212,"longitude":-3.1245402},{"name":"Hurst Substation","voltage":"400000;275000;132000","operator":"National Grid Electricity Transmission","latitude":51.4328053,"longitude":0.1549672},{"name":"Elmdon Substation","voltage":"132000","operator":"National Grid","latitude":52.4518626,"longitude":-1.7123832},{"name":"Havant BSP","voltage":"132000;33000","operator":"Scottish and Southern Electricity Networks","latitude":50.846753,"longitude":-0.9979818},{"name":"Copt Heath Substation","voltage":"132000","operator":null,"latitude":52.4065026,"longitude":-1.7490584},{"name":"Selly Oak Switching Station","voltage":"132000","operator":null,"latitude":52.4443756,"longitude":-1.9382227},{"name":"Bramley Substation","voltage":"400000;132000","operator":"National Grid","latitude":51.3364445,"longitude":-1.0774294},{"name":"Errochty Switching Station","voltage":"132000","operator":null,"latitude":56.7070151,"longitude":-4.0112469},{"name":"Abberton Grid","voltage":"132000;33000","operator":"UK Power Networks","latitude":51.8445451,"longitude":0.8866151},{"name":"Sparkbrook Substation","voltage":"132000;11000","operator":"National Grid Electricity Distribution","latitude":52.4613967,"longitude":-1.8594723},{"name":"Creyke Beck Substation","voltage":"400000","operator":"YEDL","latitude":53.8004562,"longitude":-0.4151569},{"name":"Holloway Grid Substation","voltage":"132000;66000","operator":"UK Power Networks","latitude":51.5527603,"longitude":-0.1154159},{"name":"Halesowen Substation","voltage":"132000","operator":null,"latitude":52.4534,"longitude":-2.0466288},{"name":"Axminster Substation","voltage":"400000;132000","operator":"National Grid","latitude":50.7868307,"longitude":-2.9244515},{"name":"Landulph Substation","voltage":"400000;132000","operator":null,"latitude":50.4447026,"longitude":-4.2425509},{"name":"Longbridge Substation","voltage":"132000;11000","operator":null,"latitude":52.3962393,"longitude":-1.97427},{"name":"Barnstaple Substation","voltage":"132000;33000","operator":"National Grid Electricity Distribution","latitude":51.0675683,"longitude":-4.0543372},{"name":null,"voltage":"132000;33000","operator":null,"latitude":51.467444,"longitude":-2.1072798},{"name":"Bradford","voltage":"132000;33000","operator":null,"latitude":53.8025321,"longitude":-1.7525464},{"name":"Warrington Substation","voltage":"132000","operator":"SP Energy Networks","latitude":53.3889437,"longitude":-2.568471},{"name":"Kings Lynn Grid","voltage":"132000;33000","operator":"UK Power Networks","latitude":52.7577587,"longitude":0.3997136},{"name":"Burlington Street Substation","voltage":"132000","operator":"Scottish Power","latitude":53.4184527,"longitude":-2.9939867},{"name":"Weston Grid Substation","voltage":"132000;33000","operator":"National Grid Electricity Distribution Plc","latitude":51.3452611,"longitude":-2.955986},{"name":"Walpole Substation","voltage":"400000;132000","operator":"National Grid","latitude":52.7269094,"longitude":0.1990132},{"name":"Eltham Substation","voltage":"132000","operator":"National Grid","latitude":51.4597533,"longitude":0.0797583},{"name":"Thorpe Grid","voltage":"132000;33000;25000","operator":"UK Power Networks","latitude":52.6219935,"longitude":1.3211006},{"name":"Ealing Substation","voltage":"275000;66000;22000;11000","operator":"National Grid Electricity Transmission","latitude":51.5018504,"longitude":-0.2959432},{"name":"Yarnton Substation","voltage":"132000;33000","operator":null,"latitude":51.8053154,"longitude":-1.3007661},{"name":"Dolemeads Substation","voltage":"132000;33000","operator":null,"latitude":51.3782681,"longitude":-2.3542064},{"name":"Whitehouse","voltage":"275000;33000","operator":"SP Transmission","latitude":55.9312129,"longitude":-3.2016535},{"name":"Amersham Main","voltage":"400000;132000","operator":null,"latitude":51.6649273,"longitude":-0.6559885},{"name":"Lye Green","voltage":"132000;33000","operator":"UK Power Networks","latitude":51.7219826,"longitude":-0.5897166},{"name":"Piccotts End Grid","voltage":"132000;33000","operator":"UK Power Networks","latitude":51.7736532,"longitude":-0.483319},{"name":"Ilmer Grid Substation","voltage":"132000;33000;11000","operator":"UKPN","latitude":51.7518004,"longitude":-0.8824903},{"name":"Bushey Mill Substation","voltage":"132000;11000","operator":null,"latitude":51.6713356,"longitude":-0.3815243},{"name":"Bletchley Substation","voltage":"132000","operator":"National Grid Electricity Distribution Plc","latitude":52.0109343,"longitude":-0.7436061},{"name":"Aylesbury East Substation","voltage":"132000;33000","operator":null,"latitude":51.8254152,"longitude":-0.7750886},{"name":"Arbury Substation","voltage":"132000;33000","operator":"UK Power Networks","latitude":52.2351356,"longitude":0.1310228},{"name":"Warwick Substation 132kV","voltage":"132000","operator":"National Grid Electricity Distribution","latitude":52.2861407,"longitude":-1.566851},{"name":null,"voltage":"132000","operator":null,"latitude":51.5844769,"longitude":-2.9811754},{"name":"Newport West Primary Substation","voltage":"132000;11000","operator":"National Grid Electricity Distribution Plc","latitude":51.5670267,"longitude":-3.004765},{"name":"Newport South Primary Substation","voltage":"132000;33000;11000","operator":"National Grid Electricity Distribution (South West) plc","latitude":51.5662478,"longitude":-2.9687303},{"name":"Sudbrook Primary Substation","voltage":"132000;33000;11000","operator":null,"latitude":51.5858927,"longitude":-2.7118621},{"name":"Imperial Park Substation","voltage":"400000","operator":"National Grid","latitude":51.5478226,"longitude":-3.0310146},{"name":"Llantarnam Grid Substation","voltage":"132000;66000;11000","operator":"National Grid Electricity Distribution Plc","latitude":51.6290305,"longitude":-3.0166914},{"name":"Simms Metal Primary Substation","voltage":"132000","operator":"National Grid Electricity Distribution Plc","latitude":51.568693,"longitude":-2.9894208},{"name":"Saltholme Substation","voltage":"275000","operator":null,"latitude":54.6055729,"longitude":-1.2378027},{"name":"Norton Substation","voltage":"400000;132000","operator":null,"latitude":54.5921737,"longitude":-1.3646251},{"name":"Inverness Substation","voltage":"132000;33000;11000","operator":"SSEN Distribution","latitude":57.4539002,"longitude":-4.2468907},{"name":"Iron Acton Substation","voltage":"275000;132000","operator":null,"latitude":51.5694591,"longitude":-2.4808379},{"name":"Trowbridge Primary Substation","voltage":"132000;11000","operator":"National Grid Electricity Distribution Plc","latitude":51.511664,"longitude":-3.099231},{"name":"Rushall Substation","voltage":"132000","operator":null,"latitude":52.5981348,"longitude":-1.9703647},{"name":"Bridgwater Substation (BSP)","voltage":"132000;33000","operator":"National Grid Electricity Distribution Plc","latitude":51.11812,"longitude":-2.9656965},{"name":"Bridgwater Substation","voltage":"400000;275000;132000","operator":"National Grid Electricity Distribution Plc","latitude":51.1173117,"longitude":-2.9691519},{"name":"Strood Substation","voltage":"132000","operator":null,"latitude":51.4001054,"longitude":0.4997333},{"name":"Hams Hall Substation","voltage":"400000;132000","operator":"National Grid","latitude":52.5310603,"longitude":-1.7142476},{"name":"Willesden Substation","voltage":"400000;275000;132000;22000","operator":"National Grid","latitude":51.5338915,"longitude":-0.2580011},{"name":"Willesden Feeder Station","voltage":"132000;25000;11000","operator":"Network Rail","latitude":51.5336604,"longitude":-0.2550938},{"name":"Shirley Substation","voltage":"132000","operator":null,"latitude":52.3946323,"longitude":-1.8061772},{"name":"Chickerell Substation","voltage":"400000;132000","operator":"National Grid","latitude":50.6238898,"longitude":-2.4875428},{"name":null,"voltage":"132000;33000","operator":null,"latitude":56.7147316,"longitude":-4.9543156},{"name":"Norrington Substation","voltage":"132000;33000","operator":null,"latitude":51.3837771,"longitude":-2.1699306},{"name":"Broadford Substation","voltage":"132000;33000","operator":null,"latitude":57.2480245,"longitude":-5.9360104},{"name":"Potter House Substation","voltage":"132000;66000","operator":"Northern Powergrid","latitude":54.7994602,"longitude":-1.5906719},{"name":"Timberdine Substation","voltage":"132000;11000","operator":"National Grid Electricity Distribution","latitude":52.1677094,"longitude":-2.2054887},{"name":"Dyce Grid Supply Point","voltage":"132000;33000","operator":"SSEN Transmission","latitude":57.2157617,"longitude":-2.1899416},{"name":"Persley Grid Supply Point","voltage":"132000;33000","operator":"SSEN Transmission","latitude":57.1742155,"longitude":-2.13804},{"name":"Craigiebuckler Grid Supply Point","voltage":"132000;33000","operator":"SSEN Transmission","latitude":57.1311682,"longitude":-2.1539844},{"name":"Coventry Substation","voltage":"275000;132000","operator":null,"latitude":52.4559917,"longitude":-1.46349},{"name":"Coventry North Substation","voltage":"132000;33000;11000","operator":"National Grid Electricity Distribution","latitude":52.4531149,"longitude":-1.4678199},{"name":"Burghmuir Substation","voltage":"132000","operator":null,"latitude":56.3967005,"longitude":-3.4876202},{"name":"Malvern Substation","voltage":"132000;11000","operator":"National Grid Electricity Distribution Plc","latitude":52.1263926,"longitude":-2.3051917},{"name":"Bradley Stoke Substation","voltage":"132000;33000","operator":"National Grid Electricity Distribution Plc","latitude":51.5474391,"longitude":-2.5598821},{"name":"Glenrothes Substation","voltage":"275000;33000","operator":"SP Energy Networks","latitude":56.2070307,"longitude":-3.2009994},{"name":"Chelmsley Wood Substation","voltage":"132000","operator":"National Grid Electricity Distribution Plc","latitude":52.4797255,"longitude":-1.7365568},{"name":"Warwick Substation 11kV","voltage":"132000;11000","operator":"National Grid Electricity Distribution","latitude":52.2862332,"longitude":-1.5619091},{"name":"Boughton Road Substation","voltage":"132000;11000","operator":"National Grid Electricity Distribution Plc","latitude":52.4642768,"longitude":-1.8207142},{"name":"Guildford Substation","voltage":"132000;33000","operator":"UK Power Networks","latitude":51.2457001,"longitude":-0.5784478},{"name":"Warndon Substation","voltage":"132000;11000","operator":"National Grid Electricity Distribution","latitude":52.217478,"longitude":-2.1938594},{"name":"Cockenzie Substation","voltage":"275000","operator":"SP Energy Networks","latitude":55.9667475,"longitude":-2.9680616},{"name":"Worcester Substation","voltage":"132000;11000","operator":"National Grid Electricity Distribution Plc","latitude":52.1919203,"longitude":-2.2363911},{"name":"Beauly Substation","voltage":"400000;275000;132000;33000","operator":"SSEN Transmission","latitude":57.4677293,"longitude":-4.4920459},{"name":"Willington Substation","voltage":"400000;132000","operator":"National Grid","latitude":52.8555882,"longitude":-1.5504221},{"name":"Derby South Substation","voltage":"132000;33000","operator":"National Grid Electricity Distribution","latitude":52.8856737,"longitude":-1.4612673},{"name":"Highters Heath Substation","voltage":"132000","operator":"National Grid Electricity Distribution Plc","latitude":52.4042361,"longitude":-1.8700255},{"name":"Gorgie Substation","voltage":"132000;33000","operator":"SP Transmission","latitude":55.9359149,"longitude":-3.2366595},{"name":"Summer Lane Substation","voltage":"132000;11000","operator":"National Grid Electricity Distribution","latitude":52.4873673,"longitude":-1.8990612},{"name":"Bordesley Substation","voltage":"132000;11000","operator":"National Grid Electricity Distribution","latitude":52.4745319,"longitude":-1.879542},{"name":"Bainsford","voltage":"132000;33000","operator":null,"latitude":56.0137931,"longitude":-3.7677875},{"name":"Ladywood Substation","voltage":"132000;11000","operator":"National Grid Electricity Distribution","latitude":52.4769778,"longitude":-1.915906},{"name":"Grangemouth Substation","voltage":"275000","operator":"SP Energy Networks","latitude":56.0045389,"longitude":-3.6937578},{"name":"Stocking Pelham Substation","voltage":"400000;132000","operator":"National Grid","latitude":51.9351312,"longitude":0.1181118},{"name":"Sutton Coldfield Substation","voltage":"132000;11000","operator":null,"latitude":52.5621755,"longitude":-1.8140616},{"name":null,"voltage":"132000","operator":null,"latitude":50.9707779,"longitude":-1.3908856},{"name":"Litherland Substation","voltage":"132000","operator":"Scottish Power","latitude":53.4753333,"longitude":-3.0098342},{"name":"Aintree Substation","voltage":"132000","operator":"Scottish Power","latitude":53.4910119,"longitude":-2.948809},{"name":"Southport Substation","voltage":"132000","operator":"SP Energy Networks","latitude":53.6434989,"longitude":-2.9610326},{"name":"Washway Farm Substation","voltage":"275000;132000","operator":"NGET","latitude":53.5626078,"longitude":-2.8195336},{"name":"Chester Street Substation","voltage":"132000","operator":"National Grid Electricity Distribution Plc","latitude":52.4962491,"longitude":-1.8811252},{"name":"Windyhill Substation","voltage":"400000;275000;132000","operator":"SP Energy Networks","latitude":55.9300193,"longitude":-4.3769348},{"name":"Stanton Substation","voltage":"132000;33000","operator":"National Grid Electricity Distribution","latitude":52.9479258,"longitude":-1.3125921},{"name":"Oakham Substation","voltage":"132000;33000;11000","operator":"National Grid Electricity Distribution","latitude":52.6681619,"longitude":-0.7100757},{"name":"Drakelow Substation","voltage":"400000;275000;132000","operator":"National Grid Electricity Transmission","latitude":52.7732397,"longitude":-1.6516823},{"name":"Cellarhead Substation","voltage":"400000;132000","operator":"National Grid","latitude":53.0407028,"longitude":-2.0837281},{"name":"Forsbrook Substation","voltage":"132000","operator":"National Grid Electricity Distribution","latitude":52.9800346,"longitude":-2.0438979},{"name":"Barlaston Substation","voltage":"132000","operator":"National Grid Electricity Distribution Plc","latitude":52.9239493,"longitude":-2.1676173},{"name":"Redhouse Substation","voltage":"132000;33000","operator":null,"latitude":56.1456357,"longitude":-3.1447489},{"name":"Tamworth Substation","voltage":"132000","operator":"National Grid Electricity Distribution","latitude":52.608338,"longitude":-1.6566908},{"name":"Bretton Substation","voltage":"132000;25000","operator":null,"latitude":52.5985793,"longitude":-0.2679318},{"name":"Canterbury North Substation","voltage":"400000;132000","operator":null,"latitude":51.2937889,"longitude":1.0962547},{"name":"Canterbury North Substation","voltage":"132000","operator":null,"latitude":51.2923433,"longitude":1.0941635},{"name":"Austin Cannon Substation","voltage":"132000","operator":null,"latitude":52.1269432,"longitude":-0.4833395},{"name":"Bedford (switching station)","voltage":"132000","operator":"UK Power Networks","latitude":52.1546084,"longitude":-0.4746853},{"name":"Grendon Substation","voltage":"400000;132000","operator":null,"latitude":52.2430822,"longitude":-0.7277029},{"name":"Kibworth Substation","voltage":"132000;33000","operator":"National Grid Electricity Distribution","latitude":52.5372074,"longitude":-1.0244307},{"name":"Fleet Substation","voltage":"400000;132000;33000","operator":null,"latitude":51.2509158,"longitude":-0.8813962},{"name":null,"voltage":"132000","operator":"National Grid Electricity Distribution","latitude":51.5006062,"longitude":-2.5658375},{"name":"Amlwch Substation","voltage":"132000;33000;11000","operator":"SP Energy Networks","latitude":53.4110437,"longitude":-4.3372471},{"name":"Milton of Craigie","voltage":"132000;33000","operator":null,"latitude":56.4751923,"longitude":-2.9247945},{"name":"Alton Substation","voltage":"132000;33000","operator":null,"latitude":51.1525999,"longitude":-0.9614219},{"name":"Eaton Socon substation","voltage":"400000;132000","operator":"National Grid Electricty Transmission","latitude":52.2146221,"longitude":-0.3016675},{"name":null,"voltage":"132000","operator":null,"latitude":57.6196741,"longitude":-4.83167},{"name":"Checkerhouse Substation","voltage":"132000;33000;11000","operator":"National Grid Electricity Distribution Plc","latitude":53.3067872,"longitude":-0.9969065},{"name":"Wylfa","voltage":"400000","operator":"National Grid","latitude":53.4152075,"longitude":-4.4802761},{"name":"Leighton Buzzard Substation","voltage":"400000;25000","operator":"National Grid Electricity Transmission","latitude":51.9044145,"longitude":-0.6776286},{"name":null,"voltage":"132000","operator":null,"latitude":52.9289668,"longitude":-3.9507437},{"name":"Trawsfynydd Substation","voltage":"400000;275000","operator":"National Grid","latitude":52.9270971,"longitude":-3.9467581},{"name":"Garth Cable Compound","voltage":"400000;132000","operator":null,"latitude":52.928072,"longitude":-4.0901357},{"name":"Mossmorran Substation","voltage":"275000;132000","operator":"SP Energy Networks","latitude":56.1059482,"longitude":-3.2929232},{"name":"Glenniston  Substation","voltage":"132000;33000","operator":null,"latitude":56.1112173,"longitude":-3.2712568},{"name":"East Wootton Substation","voltage":"132000;33000","operator":null,"latitude":50.7100188,"longitude":-1.2537599},{"name":null,"voltage":"132000","operator":null,"latitude":56.0896372,"longitude":-3.4494825},{"name":"Kincardine Substation","voltage":"275000","operator":"SP Energy Networks","latitude":56.0750788,"longitude":-3.7306618},{"name":"Elgin Grid Supply Point","voltage":"132000;33000","operator":"SSEN Transmission","latitude":57.6647528,"longitude":-3.3211727},{"name":"Bathgate","voltage":"132000;33000","operator":null,"latitude":55.899652,"longitude":-3.6723928},{"name":"Mannington Substation","voltage":"400000;132000;33000","operator":"National Grid","latitude":50.8468264,"longitude":-1.8953249},{"name":"Husthwaite Substation","voltage":"132000;11000","operator":null,"latitude":54.1575155,"longitude":-1.2276383},{"name":"Christchurch Substation","voltage":"132000","operator":"Scottish and Southern Electricity Networks","latitude":50.7376214,"longitude":-1.7795395},{"name":"Osbaldwick Grid Substation","voltage":"400000;132000","operator":null,"latitude":53.9568137,"longitude":-1.0230507},{"name":"Melrosegate","voltage":"132000","operator":null,"latitude":53.9592761,"longitude":-1.0587352},{"name":null,"voltage":"132000","operator":null,"latitude":52.4379149,"longitude":1.5093487},{"name":null,"voltage":"132000","operator":"UK Power Networks","latitude":52.3956885,"longitude":1.4687588},{"name":"Halesworth Substation","voltage":"132000;33000","operator":"UK Power Networks","latitude":52.356217,"longitude":1.5101469},{"name":"Irthlingborough Substation","voltage":"132000;33000","operator":"National Grid Electricity Distribution Plc","latitude":52.3192815,"longitude":-0.6140131},{"name":"Enderby Substation","voltage":"400000;132000","operator":"National Grid Electricity Transmission","latitude":52.5976392,"longitude":-1.2168195},{"name":"Loughborough Substation","voltage":"132000;33000","operator":null,"latitude":52.7866503,"longitude":-1.2096934},{"name":"Hunningley","voltage":"132000","operator":null,"latitude":53.5484161,"longitude":-1.4493148},{"name":"Barugh","voltage":"132000;66000","operator":null,"latitude":53.5735954,"longitude":-1.5191923},{"name":"Stocksbridge","voltage":"400000","operator":null,"latitude":53.4877125,"longitude":-1.6018902},{"name":"Monk Fryston substation","voltage":"400000;275000","operator":"National Grid Electricity Transmission","latitude":53.756227,"longitude":-1.266405},{"name":"Worksop Substation","voltage":"132000;33000","operator":"National Grid Electricity Distribution Plc","latitude":53.3060813,"longitude":-1.1003831},{"name":"Thorpe Marsh Substation","voltage":"400000","operator":"National Grid","latitude":53.5755438,"longitude":-1.0894264},{"name":"Thurcroft Substation","voltage":"275000;66000","operator":null,"latitude":53.4048502,"longitude":-1.2685721},{"name":"Wakefield North","voltage":"132000;33000","operator":null,"latitude":53.7060595,"longitude":-1.4985825},{"name":"Devonside Substation","voltage":"132000","operator":null,"latitude":56.1371917,"longitude":-3.7795423},{"name":"Staythorpe Substation","voltage":"400000;132000","operator":"National Grid Electricity Transmission","latitude":53.0773916,"longitude":-0.8681086},{"name":"Staythorpe B Substation","voltage":"132000","operator":null,"latitude":53.0778263,"longitude":-0.8641213},{"name":"Staythorpe C Substation","voltage":"132000","operator":null,"latitude":53.0769241,"longitude":-0.865492},{"name":"Kemsley Substation","voltage":"400000;132000","operator":"National Grid","latitude":51.3683326,"longitude":0.7416514},{"name":"Singlewell Substation","voltage":"400000;25000","operator":"National Grid","latitude":51.4050158,"longitude":0.3924148},{"name":"Pembury Grid Substation","voltage":"132000;33000","operator":null,"latitude":51.1680841,"longitude":0.343381},{"name":"Grantham North Substation","voltage":"132000;33000;11000","operator":"National Grid Electricity Distribution Plc","latitude":52.9377208,"longitude":-0.6465452},{"name":"Erskine Substation","voltage":"132000;33000","operator":null,"latitude":55.9041569,"longitude":-4.4828845},{"name":"Devol Moor Substation","voltage":"400000;132000;33000","operator":null,"latitude":55.9158673,"longitude":-4.7088254},{"name":"Ridham Dock Substation","voltage":"132000","operator":null,"latitude":51.3794471,"longitude":0.7586766},{"name":"Sittingbourne Substation","voltage":"132000;33000","operator":null,"latitude":51.3445173,"longitude":0.6970787},{"name":"Bolney Substation","voltage":"400000;132000","operator":null,"latitude":50.9752628,"longitude":-0.2347866},{"name":"Saltcoats","voltage":"132000;33000;25000","operator":null,"latitude":55.6470113,"longitude":-4.7961394},{"name":"Kilwinning Substation","voltage":"132000;33000","operator":null,"latitude":55.6652462,"longitude":-4.6805145},{"name":"Boat of Garten Substation","voltage":"132000","operator":null,"latitude":57.2536257,"longitude":-3.7319182},{"name":"Betteshanger Grid;Betteshanger Local","voltage":"132000;33000;11000","operator":"UK Power Networks","latitude":51.2281149,"longitude":1.3433572},{"name":"Appledore Switching Station","voltage":"132000","operator":null,"latitude":51.0326555,"longitude":0.7749145},{"name":"Ashford Substation","voltage":"132000","operator":null,"latitude":51.1449549,"longitude":0.8668399},{"name":"Eurotunnel Main Intake Substation","voltage":"132000","operator":"UK Power Networks","latitude":51.0979691,"longitude":1.1475148},{"name":"Burham Grid","voltage":"132000","operator":null,"latitude":51.3143855,"longitude":0.462381},{"name":"Medway Grid","voltage":"132000;33000","operator":"UK Power Networks","latitude":51.3526026,"longitude":0.4613793},{"name":"Maidstone Grid","voltage":"132000;33000;11000","operator":"UK Power Networks","latitude":51.2747394,"longitude":0.5336606},{"name":"Boyton End Substation","voltage":"132000","operator":null,"latitude":51.9656263,"longitude":0.3605021},{"name":"Edison Road Grid","voltage":"132000;11000","operator":"UK Power Networks","latitude":52.1499542,"longitude":-0.4208022},{"name":"Stella West Sub Station","voltage":"400000;275000;132000","operator":null,"latitude":54.9777379,"longitude":-1.7431745},{"name":"Menston Substation","voltage":"132000","operator":"Northern Powergrid","latitude":53.885229,"longitude":-1.7260327},{"name":"Corby North Substation","voltage":"132000","operator":null,"latitude":52.509506,"longitude":-0.6807246},{"name":"Corby Substation","voltage":"132000","operator":null,"latitude":52.4912858,"longitude":-0.6694396},{"name":"Tamworth Town Substation","voltage":"132000","operator":"National Grid Electricity Distribution","latitude":52.6323267,"longitude":-1.6877235},{"name":"Chatham Grid;Chatham Hill","voltage":"132000;33000;11000","operator":"UK Power Networks","latitude":51.3778929,"longitude":0.5397109},{"name":"Bushbury 'D' Substation","voltage":"275000;132000","operator":"National Grid","latitude":52.6363391,"longitude":-2.1146173},{"name":"Bushbury B-C 132/33/11 kV Substation","voltage":"132000;33000;11000","operator":null,"latitude":52.633567,"longitude":-2.1132162},{"name":"Berkswell Substation","voltage":"132000","operator":"National Grid Electricity Distribution","latitude":52.3864334,"longitude":-1.6135659},{"name":"Berkswell 275kV","voltage":"275000;132000","operator":"National Grid","latitude":52.3860587,"longitude":-1.6154849},{"name":"Annesley Substation","voltage":"132000;33000;11000","operator":"National Grid Electricity Distribution","latitude":53.0879209,"longitude":-1.2446846},{"name":"Chesterfield Substation","voltage":"275000;132000;33000","operator":"National Grid","latitude":53.2244206,"longitude":-1.3879397},{"name":"East Claydon Substation","voltage":"400000;132000","operator":"National Grid Electricity Transmission","latitude":51.9263289,"longitude":-0.9069919},{"name":"Brackley Substation","voltage":"132000;33000;11000","operator":"National Grid Electricity Distribution","latitude":52.049162,"longitude":-1.1461267},{"name":"Macclesfield Substation","voltage":"400000","operator":"National Grid","latitude":53.2686275,"longitude":-2.1209013},{"name":"Alfreton Substation","voltage":"132000;33000","operator":"National Grid Electricity Distribution Plc","latitude":53.1088869,"longitude":-1.3850502},{"name":"Hinksford Substatio","voltage":"132000;33000","operator":"National Grid Electricity Distribution Plc","latitude":52.5055952,"longitude":-2.1943119},{"name":"Coseley Substation","voltage":"132000","operator":null,"latitude":52.5517461,"longitude":-2.0921393},{"name":"Penn Substation","voltage":"400000;275000;132000","operator":"National Grid Electricity Transmission","latitude":52.5564709,"longitude":-2.2091483},{"name":"Walham Substation","voltage":"400000","operator":null,"latitude":51.8793325,"longitude":-2.2534959},{"name":"Walford Substation","voltage":"400000","operator":"National Grid","latitude":51.8882288,"longitude":-2.6045758},{"name":"Hereford","voltage":"132000;66000;11000","operator":null,"latitude":52.0539519,"longitude":-2.6197377},{"name":"Daines Substation","voltage":"400000","operator":"National Grid","latitude":53.4259585,"longitude":-2.379263},{"name":"Sale BSP","voltage":"132000","operator":null,"latitude":53.4324704,"longitude":-2.3218248},{"name":"South Manchester Substation","voltage":"275000;132000","operator":"National Grid Electricity Transmission","latitude":53.4210494,"longitude":-2.2761286},{"name":"Radway Green Substation","voltage":"132000","operator":"Scottish Power","latitude":53.0843644,"longitude":-2.3361908},{"name":"Darlington North Substation","voltage":"132000;66000;6000","operator":null,"latitude":54.5554554,"longitude":-1.5607901},{"name":null,"voltage":"132000","operator":null,"latitude":52.4408752,"longitude":-1.9866131},{"name":"Meaford C Substation","voltage":"132000;33000;11000","operator":"National Grid Electricity Distribution Plc","latitude":52.931608,"longitude":-2.1674265},{"name":"Leeds East Substation","voltage":"132000;33000","operator":"Northern Powergrid","latitude":53.8016782,"longitude":-1.5093328},{"name":null,"voltage":"132000;33000","operator":null,"latitude":50.8589281,"longitude":-0.6902858},{"name":"Kensal Green Substation","voltage":"400000;132000;25000","operator":"National Grid","latitude":51.5262348,"longitude":-0.2241556},{"name":"Bredbury Substation","voltage":"275000;132000","operator":"National Grid Electricity Transmission","latitude":53.4147263,"longitude":-2.1296435},{"name":"Colchester Grid Substation","voltage":"132000;33000;25000;11000","operator":"UK Power Networks","latitude":51.8781536,"longitude":0.9307386},{"name":"Burghfield Substation","voltage":"132000;33000","operator":null,"latitude":51.4293388,"longitude":-1.0024029},{"name":"Ribble GSP Substation","voltage":"132000;33000","operator":"Electricity North West","latitude":53.7571008,"longitude":-2.732318},{"name":"Cardiff South Primary Substation","voltage":"132000;11000","operator":"National Grid Electricity Distribution Plc","latitude":51.4656561,"longitude":-3.1554596},{"name":"Kidsgrove BR Substation","voltage":"132000;25000","operator":null,"latitude":53.0809238,"longitude":-2.2081789},{"name":"Knutsford Substation","voltage":"132000;33000","operator":"SP Energy Networks","latitude":53.2976591,"longitude":-2.3735297},{"name":"Bentley Substation","voltage":"132000","operator":"National Grid Electricity Distribution Plc","latitude":52.5805691,"longitude":-2.0177923},{"name":"Tilbury Substation","voltage":"400000;275000","operator":"National Grid","latitude":51.4601889,"longitude":0.3913114},{"name":"Perry Barr Substation","voltage":"275000;132000;11000","operator":null,"latitude":52.527031,"longitude":-1.8960314},{"name":"Lostock Substation","voltage":"132000;33000;11000","operator":"SP Energy Networks","latitude":53.2661027,"longitude":-2.4625592},{"name":"ICI Wade Substation","voltage":"132000","operator":"Scottish Power","latitude":53.2634884,"longitude":-2.4807572},{"name":"Stowmarket Grid","voltage":"132000;33000;25000","operator":"UK Power Networks","latitude":52.1712287,"longitude":1.0182562},{"name":null,"voltage":"400000","operator":null,"latitude":53.2311272,"longitude":-3.0740391},{"name":"North Tees Sub Station","voltage":"132000","operator":null,"latitude":54.5880051,"longitude":-1.2670136},{"name":"Stafford Substation","voltage":"132000","operator":null,"latitude":52.8102034,"longitude":-2.1222611},{"name":"Hyde Grid Substation","voltage":"132000;33000","operator":null,"latitude":53.4576322,"longitude":-2.0691385},{"name":"New Mills Substation","voltage":"132000","operator":null,"latitude":53.3523172,"longitude":-1.9842497},{"name":"Buxton Substation","voltage":"132000;33000","operator":null,"latitude":53.27596,"longitude":-1.8851189},{"name":null,"voltage":"132000","operator":"SP Energy Networks","latitude":53.2347387,"longitude":-3.03495},{"name":null,"voltage":"132000","operator":null,"latitude":53.234438,"longitude":-3.0374053},{"name":"Minety Substation","voltage":"400000;132000","operator":"National Grid","latitude":51.6075831,"longitude":-2.0020389},{"name":"Cirencester Grid Substation (CIRE)","voltage":"132000;33000","operator":"Scottish and Southern Electricity Networks","latitude":51.7020146,"longitude":-1.9623167},{"name":null,"voltage":"132000","operator":"Electricity North West","latitude":53.8863794,"longitude":-2.7480038},{"name":"Brymbo","voltage":"132000","operator":null,"latitude":53.0712974,"longitude":-3.0606031},{"name":"Legacy Substation","voltage":"400000;132000","operator":"National Grid","latitude":53.0287761,"longitude":-3.0531973},{"name":"Westfield Substation","voltage":"275000;132000","operator":"SP Energy Networks","latitude":56.1642681,"longitude":-3.3003682},{"name":"Peterborough Power Station Substation","voltage":"132000","operator":null,"latitude":52.5759603,"longitude":-0.2015279},{"name":null,"voltage":"132000;11000","operator":null,"latitude":51.6622442,"longitude":-1.2350874},{"name":"Trostre Grid Substation","voltage":"132000;33000","operator":"National Grid Electricity Distribution Plc","latitude":51.6751746,"longitude":-4.1323025},{"name":"Gowerton East Grid Substation","voltage":"132000;33000","operator":"National Grid Electricity Distribution Plc","latitude":51.6462135,"longitude":-4.0132689},{"name":"Morriston Substation","voltage":"132000;11000","operator":"National Grid Electricity Distribution Plc","latitude":51.6672413,"longitude":-3.9142618},{"name":"Cilfynydd Supergrid Substation","voltage":"400000;275000","operator":"National Grid","latitude":51.6357724,"longitude":-3.3005964},{"name":"Erdington Substation","voltage":"132000","operator":null,"latitude":52.5124759,"longitude":-1.8283812},{"name":"Upton Warren Substation","voltage":"132000;66000;11000","operator":null,"latitude":52.3093385,"longitude":-2.0959394},{"name":"Ystradgynlais Grid Substation","voltage":"132000;33000","operator":"National Grid Electricity Distribution Plc","latitude":51.7628096,"longitude":-3.7543486},{"name":"Rassau Supergrid Substation","voltage":"400000;132000","operator":"National Grid;Western Power Distribution","latitude":51.8084274,"longitude":-3.2261618},{"name":"Rassau West Primary Substation","voltage":"132000;11000","operator":"National Grid Electricity Distribution Plc","latitude":51.7979381,"longitude":-3.2373575},{"name":"Brelston Green Supergrid Substation","voltage":"400000","operator":null,"latitude":51.8768467,"longitude":-2.6357381},{"name":"Crumlin Primary Substation","voltage":"132000;33000;11000;400","operator":null,"latitude":51.674504,"longitude":-3.1578229},{"name":"Cwmbran Primary Substation","voltage":"132000;11000","operator":"National Grid Electricity Distribution Plc","latitude":51.6534791,"longitude":-3.0252591},{"name":"Pengam Primary Substation","voltage":"132000;11000","operator":"National Grid Electricity Distribution Plc","latitude":51.6694131,"longitude":-3.2178345},{"name":"Mountain Ash Grid Substation","voltage":"132000;33000","operator":"National Grid Electricity Distribution Plc","latitude":51.6675633,"longitude":-3.3716329},{"name":"Stourport Substation","voltage":"132000","operator":null,"latitude":52.337586,"longitude":-2.269399},{"name":"Bishops Wood Substation","voltage":"275000;132000","operator":"National Grid Electricity Transmission","latitude":52.3124612,"longitude":-2.2422911},{"name":"Feckenham Substation","voltage":"400000;275000;66000;11000","operator":"National Grid Electricity Transmission","latitude":52.2509986,"longitude":-1.9728242},{"name":"Burton Substation","voltage":"132000;33000","operator":"National Grid Electricity Distribution","latitude":52.8160074,"longitude":-1.6236303},{"name":"Nairn Grid Substation","voltage":"132000;33000","operator":"SSE Power Distribution","latitude":57.576647,"longitude":-3.8484156},{"name":null,"voltage":"132000;33000","operator":null,"latitude":52.3861919,"longitude":0.7382597},{"name":"Folkestone Grid 132kV 009920","voltage":"132000;33000","operator":null,"latitude":51.0846856,"longitude":1.1491961},{"name":"Tynemouth Substation","voltage":"275000","operator":"National Grid","latitude":55.0237175,"longitude":-1.5000287},{"name":"Smeaton Substation","voltage":"400000;275000","operator":null,"latitude":55.9085696,"longitude":-3.0361557},{"name":"Featherstone Substation","voltage":"132000;33000","operator":null,"latitude":53.6864205,"longitude":-1.3848248},{"name":null,"voltage":"400000","operator":"SP Energy Networks","latitude":55.9509336,"longitude":-2.4199021},{"name":"Branxton Substation","voltage":"400000","operator":"SP Energy Networks","latitude":55.948824,"longitude":-2.4167491},{"name":"Dunbar Substation","voltage":"132000","operator":null,"latitude":55.977321,"longitude":-2.5735805},{"name":"Tod Point Substation","voltage":"275000","operator":null,"latitude":54.6065011,"longitude":-1.1167657},{"name":"RAE Grid","voltage":"132000;33000","operator":null,"latitude":52.1961888,"longitude":-0.4903634},{"name":"Aldershot Grid Substation","voltage":"132000;33000","operator":"Scottish and Southern Electricity Networks","latitude":51.2316945,"longitude":-0.7707188},{"name":null,"voltage":"132000","operator":null,"latitude":53.397724,"longitude":-2.3565728},{"name":"Manningtree BR Substation","voltage":"132000;25000","operator":null,"latitude":51.9492064,"longitude":1.0495894},{"name":"Tremorfa Substation","voltage":"275000;33000","operator":"National Grid Electricity Transmission","latitude":51.4819265,"longitude":-3.1302537},{"name":"Pentir Substation","voltage":"400000;132000","operator":"National Grid","latitude":53.1875022,"longitude":-4.1581964},{"name":"Tunbridge Wells Grid","voltage":"132000;33000;11000","operator":null,"latitude":51.1454201,"longitude":0.2743142},{"name":"Westoning Substation","voltage":"132000;33000;11000","operator":"UKPN","latitude":51.9858318,"longitude":-0.4906264},{"name":"Fraddon Substation","voltage":"132000;33000","operator":null,"latitude":50.3754122,"longitude":-4.9370819},{"name":"Wellingborough Substation","voltage":"132000;33000;11000","operator":null,"latitude":52.2918526,"longitude":-0.68537},{"name":"St Austell BSP Substation","voltage":"132000;33000","operator":"National Grid Electricity Distribution","latitude":50.3550688,"longitude":-4.7912013},{"name":"Lewes Grid","voltage":"132000","operator":null,"latitude":50.8872404,"longitude":0.0412334},{"name":"Pyworthy Substation","voltage":"132000;33000","operator":"National Grid Electricity Distribution","latitude":50.7940519,"longitude":-4.4081018},{"name":"Alverdiscott Substation","voltage":"400000;132000","operator":"National Grid Electricity Transmission","latitude":51.0058838,"longitude":-4.1369429},{"name":"Kilmarnock South Substation","voltage":"400000;275000","operator":null,"latitude":55.576297,"longitude":-4.4633123},{"name":"Wilton Substation","voltage":"275000","operator":"National Grid Electricity Transmission","latitude":54.5757671,"longitude":-1.1317656},{"name":"Hastings Main","voltage":"132000","operator":"UK Power Networks","latitude":50.8773235,"longitude":0.600717},{"name":"London Gateway Substation","voltage":"132000","operator":null,"latitude":51.5078334,"longitude":0.4551039},{"name":"Coryton South Substation","voltage":"400000","operator":null,"latitude":51.5128556,"longitude":0.5067258},{"name":"Fleethall Substation","voltage":"132000","operator":"UK Power Networks","latitude":51.5707128,"longitude":0.733698},{"name":"Maldon Substation","voltage":"132000","operator":"UK Power Networks","latitude":51.7252438,"longitude":0.6587625},{"name":"Chelmsford East Substation","voltage":"132000;33000","operator":null,"latitude":51.7160113,"longitude":0.5185068},{"name":"Springfield BR Substation","voltage":"132000;25000","operator":"UK Power Networks","latitude":51.7642536,"longitude":0.5320886},{"name":"Scunthorpe North Substation","voltage":"132000","operator":null,"latitude":53.6025837,"longitude":-0.6511258},{"name":null,"voltage":"132000","operator":null,"latitude":53.5966007,"longitude":-0.5939501},{"name":"Broughton GSP","voltage":"132000","operator":null,"latitude":53.5675301,"longitude":-0.5903905},{"name":"Grovehurst Substation","voltage":"132000;33000;11000","operator":null,"latitude":51.3660119,"longitude":0.7538495},{"name":"Sheerness Grid Substation","voltage":"132000;33000","operator":"UK Power Networks","latitude":51.4367264,"longitude":0.7495848},{"name":"Sheerness Steelworks","voltage":"132000","operator":"UK Power Networks","latitude":51.4374149,"longitude":0.7522264},{"name":"Nevendon Substation","voltage":"132000;33000","operator":"UK Power Networks","latitude":51.5945783,"longitude":0.4850032},{"name":"Neepsend Substation","voltage":"400000;275000","operator":null,"latitude":53.4061008,"longitude":-1.4882709},{"name":"Attercliffe Substation","voltage":"132000","operator":"YEDL","latitude":53.3908566,"longitude":-1.4273698},{"name":"Bourne Substation","voltage":"132000","operator":"National Grid Electricity Distribution","latitude":52.7653397,"longitude":-0.3842866},{"name":"South Holland Substation","voltage":"132000;33000","operator":"National Grid Electricity Distribution","latitude":52.7567302,"longitude":0.0318298},{"name":"Bourne West Substation","voltage":"132000","operator":"National Grid Electricity Distribution","latitude":52.7602761,"longitude":-0.4197228},{"name":"Grantham Substation","voltage":"132000;33000","operator":"National Grid Electricity Distribution","latitude":52.9246787,"longitude":-0.5883262},{"name":"Boston Substation","voltage":"132000;33000","operator":"National Grid Electricity Distribution Plc","latitude":52.9663392,"longitude":-0.0147785},{"name":"West Melton Substation","voltage":"132000","operator":"Northern Powergrid","latitude":53.5019975,"longitude":-1.3788611},{"name":"Stamford Substation","voltage":"132000;33000;11000","operator":"National Grid Electricity Distribution","latitude":52.6515663,"longitude":-0.4709815},{"name":"Brynhill Barry Grid Substation","voltage":"132000;33000;11000","operator":"National Grid Electricity Distribution Plc","latitude":51.4224242,"longitude":-3.2791935},{"name":"Melton Mowbray Substation","voltage":"132000;33000","operator":null,"latitude":52.7647264,"longitude":-0.86947},{"name":"Wincobank Substation","voltage":"275000;33000","operator":null,"latitude":53.4157957,"longitude":-1.4140376},{"name":"Cowbridge Tee Substation","voltage":"275000","operator":null,"latitude":51.4869759,"longitude":-3.4070303},{"name":"Harlow West Grid Substation","voltage":"132000","operator":null,"latitude":51.7638075,"longitude":0.0665208},{"name":"Dormansland Grid","voltage":"132000;33000","operator":null,"latitude":51.1489145,"longitude":0.0209406},{"name":"Bridgend Grid Substation","voltage":"132000;33000","operator":"National Grid Electricity Distribution Plc","latitude":51.5181683,"longitude":-3.5785128},{"name":"Charlotte Street Substation","voltage":"275000;33000","operator":"SP Energy Networks","latitude":55.8552079,"longitude":-4.2397456},{"name":"Epping Grid Substation","voltage":"132000;33000;11000","operator":null,"latitude":51.707436,"longitude":0.1191571},{"name":"Eccles Substation","voltage":"400000;132000;33000","operator":"SP Energy Networks","latitude":55.6692989,"longitude":-2.3296165},{"name":"Brora Substation","voltage":"132000;33000","operator":null,"latitude":58.0199808,"longitude":-3.8749202},{"name":"Stevenage Substation","voltage":"132000;33000","operator":null,"latitude":51.9052619,"longitude":-0.2232339},{"name":"Barking Substation","voltage":"400000;275000;132000;33000;11000","operator":"National Grid","latitude":51.521184,"longitude":0.1142213},{"name":null,"voltage":"132000","operator":"YEDL","latitude":53.7232493,"longitude":-0.4633077},{"name":null,"voltage":"132000","operator":null,"latitude":52.5526614,"longitude":0.0543631},{"name":"W Thurrock/Littlebrook Cable Compund","voltage":"400000","operator":"National Grid","latitude":51.4737111,"longitude":0.2723001},{"name":"West Thurrock Substation","voltage":"400000;275000","operator":"National Grid","latitude":51.4710554,"longitude":0.2882521},{"name":"Coryton Substation","voltage":"132000","operator":null,"latitude":51.5179052,"longitude":0.5044859},{"name":"Tilbury Local Substation","voltage":"132000;33000;11000","operator":"UK Power Networks","latitude":51.4615941,"longitude":0.3802809},{"name":null,"voltage":"400000","operator":"National Grid","latitude":51.4423059,"longitude":0.4075969},{"name":"South Benfleet Substation","voltage":"132000;33000","operator":null,"latitude":51.546475,"longitude":0.557544},{"name":"Melksham Substation","voltage":"400000;275000;132000","operator":null,"latitude":51.3934219,"longitude":-2.1506717},{"name":"Chipping Sodbury Substation","voltage":"132000","operator":null,"latitude":51.5527431,"longitude":-2.4123918},{"name":"Long Covert Cable Compoound","voltage":"400000","operator":null,"latitude":51.6084297,"longitude":-2.6154866},{"name":"Lawford Substation","voltage":"132000;33000","operator":"UK Power Networks","latitude":51.916587,"longitude":1.0188876},{"name":null,"voltage":"132000;33000","operator":null,"latitude":52.6426371,"longitude":0.7027146},{"name":"Steyning Grid","voltage":"132000;33000","operator":null,"latitude":50.8932461,"longitude":-0.3185083},{"name":"West Grafton Substation","voltage":"132000","operator":null,"latitude":51.3314781,"longitude":-1.6526496},{"name":"Ruckinge Grid","voltage":"132000;33000","operator":"UK Power Networks","latitude":51.0620773,"longitude":0.8741767},{"name":"Broxburn 132kV Substation","voltage":"132000;33000","operator":"SP Transmission","latitude":55.9194337,"longitude":-3.4536529},{"name":"Shrubhill","voltage":"275000;33000","operator":"SP Energy Networks","latitude":55.9653695,"longitude":-3.1849957},{"name":"Kings Lynn South Grid","voltage":"132000;33000;25000","operator":"UK Power Networks","latitude":52.7315358,"longitude":0.4028871},{"name":"Linton Substation","voltage":"132000;66000;20000;25000","operator":null,"latitude":55.2282505,"longitude":-1.6051588},{"name":"University Of Birmingham Substation","voltage":"132000","operator":null,"latitude":52.4479293,"longitude":-1.9346917},{"name":"Duke Street Substation","voltage":"132000;11000","operator":"UK Power Networks","latitude":51.5131376,"longitude":-0.1515267},{"name":"Tiverton Junction Substation","voltage":"132000;33000;11000","operator":"National Grid Electricity Distribution","latitude":50.8958858,"longitude":-3.3811826},{"name":"Winson Green Substation","voltage":"132000;33000;11000","operator":"National Grid Electricity Distribution","latitude":52.487003,"longitude":-1.928272},{"name":"Burwell Primary Substation","voltage":"132000;33000","operator":"UK Power Networks","latitude":52.277389,"longitude":0.3178785},{"name":"Belchamp Substation","voltage":"132000;33000;11000","operator":"UK Power Networks","latitude":52.0687027,"longitude":0.6057528},{"name":"Rye Grid","voltage":"132000","operator":null,"latitude":50.9744579,"longitude":0.7111744},{"name":"Rhos Primary Substation","voltage":"132000;33000;11000","operator":"National Grid Electricity Distribution Plc","latitude":52.0058071,"longitude":-4.362073},{"name":"Carmarthen Grid Substation","voltage":"132000;33000","operator":"National Grid Electricity Distribution Plc","latitude":51.8478115,"longitude":-4.3569952},{"name":"Wickham Market Substation","voltage":"132000;33000","operator":"UK Power Networks","latitude":52.1875014,"longitude":1.3675135},{"name":"Churchill Substation","voltage":"132000;33000;11000","operator":"National Grid Electricity Distribution Plc","latitude":51.3565301,"longitude":-2.7890923},{"name":null,"voltage":"132000","operator":null,"latitude":52.5748579,"longitude":1.2751396},{"name":"Port Dundas","voltage":"275000;33000","operator":"SP Energy Networks","latitude":55.8736993,"longitude":-4.2550626},{"name":null,"voltage":"400000","operator":"National Grid","latitude":51.4205926,"longitude":0.6999829},{"name":null,"voltage":"400000","operator":"National Grid","latitude":51.4358386,"longitude":0.7053995},{"name":"Grain Static Inverter Plant","voltage":"450000;400000","operator":null,"latitude":51.4404983,"longitude":0.7161576},{"name":"Poppleton Substation","voltage":"275000","operator":null,"latitude":53.9749444,"longitude":-1.1315115},{"name":"Lackenby Substation","voltage":"400000;275000","operator":null,"latitude":54.5668114,"longitude":-1.1316735},{"name":"Luton South Substation","voltage":"132000","operator":"UK Power Networks","latitude":51.8744868,"longitude":-0.4010848},{"name":null,"voltage":"132000","operator":null,"latitude":51.8962832,"longitude":-0.5135045},{"name":"Tealing Substation","voltage":"275000;132000","operator":null,"latitude":56.5212823,"longitude":-2.9778963},{"name":"Torness Substation","voltage":"400000","operator":null,"latitude":55.9662046,"longitude":-2.4103363},{"name":null,"voltage":"132000","operator":null,"latitude":54.4248567,"longitude":-3.495482},{"name":"Rhydlydan Substation","voltage":"132000;33000","operator":"SP Energy Networks","latitude":52.4125604,"longitude":-3.8786674},{"name":"Ebury Bridge Substation","voltage":"132000;11000","operator":"UK Power Networks","latitude":51.4906135,"longitude":-0.1488157},{"name":"Hawton Substation","voltage":"132000;33000;11000","operator":"National Grid Electricity Distribution","latitude":53.05024,"longitude":-0.805131},{"name":"Moreton Street Substation","voltage":"132000","operator":"UK Power Networks","latitude":51.4900851,"longitude":-0.1348631},{"name":"Cut Throat Lane Switching Station","voltage":"132000","operator":null,"latitude":52.1442734,"longitude":-0.487791},{"name":"Elmers Marsh substation","voltage":"132000;33000","operator":null,"latitude":51.0479359,"longitude":-0.7671164},{"name":"Hartley Grid","voltage":"132000;33000","operator":null,"latitude":51.0934089,"longitude":0.5062757},{"name":"Doncaster Central 132/33/25kV","voltage":"132000;33000;25000","operator":null,"latitude":53.5268173,"longitude":-1.1384551},{"name":"Inverkeithing Substation","voltage":"132000","operator":null,"latitude":56.0422292,"longitude":-3.3896862},{"name":"Keith Substation","voltage":"275000;132000;33000","operator":null,"latitude":57.5403012,"longitude":-2.9383359},{"name":"Culham JET Substation","voltage":"400000;33000","operator":null,"latitude":51.6610855,"longitude":-1.2282587},{"name":"Steventon Substation","voltage":"132000;33000","operator":null,"latitude":51.6312312,"longitude":-1.3269583},{"name":null,"voltage":"132000;33000","operator":null,"latitude":51.5796032,"longitude":-1.3174153},{"name":null,"voltage":"132000","operator":null,"latitude":50.6781992,"longitude":-2.2738271},{"name":"West Oxford Substation","voltage":"132000;33000","operator":null,"latitude":51.750349,"longitude":-1.2762142},{"name":null,"voltage":"132000;33000","operator":null,"latitude":51.772074,"longitude":-1.4852771},{"name":null,"voltage":"132000","operator":null,"latitude":51.7059479,"longitude":-1.2358587},{"name":"Nechells West BSP","voltage":"132000;25000;11000","operator":"National Grid Electricity Distribution","latitude":52.5066918,"longitude":-1.8575714},{"name":"Tinsley Park Substation","voltage":"275000;33000","operator":null,"latitude":53.4011851,"longitude":-1.3946763},{"name":"Herne Bay Substation","voltage":"132000","operator":null,"latitude":51.3535857,"longitude":1.0956196},{"name":"Pitsmoor Substation","voltage":"275000;33000","operator":null,"latitude":53.4006941,"longitude":-1.443659},{"name":null,"voltage":"132000","operator":null,"latitude":56.1989528,"longitude":-3.0391723},{"name":"Halifax substation","voltage":"132000","operator":"Northern Powergrid","latitude":53.7262669,"longitude":-1.8582294},{"name":null,"voltage":"132000","operator":null,"latitude":54.0010673,"longitude":-1.5547392},{"name":"Longford Street Substation","voltage":"132000","operator":"UK Power Networks","latitude":51.5251981,"longitude":-0.1417363},{"name":"Leicester Substation","voltage":"132000;33000;11000","operator":null,"latitude":52.6225381,"longitude":-1.1412518},{"name":"East Yelland Substation","voltage":"132000;33000","operator":"National Grid Electricity Distribution","latitude":51.0682245,"longitude":-4.1716536},{"name":"Braehead Park Substation","voltage":"132000;33000;11000","operator":"SP Transmission","latitude":55.8808202,"longitude":-4.3811881},{"name":"Kintore Grid Supply Point","voltage":"275000;132000","operator":"SSEN Transmission","latitude":57.2187515,"longitude":-2.3814509},{"name":"Stirling","voltage":"132000;33000","operator":"SP Energy Networks","latitude":56.1174762,"longitude":-3.9193608},{"name":null,"voltage":"275000","operator":null,"latitude":56.089171,"longitude":-3.7184026},{"name":null,"voltage":"275000","operator":null,"latitude":56.0874202,"longitude":-3.7215384},{"name":"Easterhouse Substation","voltage":"275000","operator":"SP Energy Networks","latitude":55.8790821,"longitude":-4.0745096},{"name":"Clyde's Mill Substation","voltage":"275000","operator":"SP Energy Networks","latitude":55.8228498,"longitude":-4.1492908},{"name":"Dalmarnock","voltage":"275000;132000;33000","operator":"SP Energy Networks","latitude":55.8354454,"longitude":-4.2038406},{"name":"Taunton Substation","voltage":"400000;132000","operator":"National Grid","latitude":51.0170656,"longitude":-3.154274},{"name":"Peterborough Central Substation","voltage":"132000","operator":null,"latitude":52.5674922,"longitude":-0.2432429},{"name":"Pencoed Primary Substation","voltage":"132000;11000","operator":"National Grid Electricity Distribution Plc","latitude":51.521449,"longitude":-3.4889816},{"name":"Canterbury South Substation","voltage":"132000","operator":null,"latitude":51.2908482,"longitude":1.0868923},{"name":"Stella North Substation","voltage":"132000","operator":null,"latitude":54.9780515,"longitude":-1.7245319},{"name":"Margam Substation","voltage":"275000;66000","operator":"National Grid Electricity Transmission","latitude":51.5629135,"longitude":-3.753909},{"name":"Pyle Supergrid Substation","voltage":"275000;132000;66000","operator":"National Grid Electricity Transmission","latitude":51.5361123,"longitude":-3.687801},{"name":"Bowesfield","voltage":"132000;33000","operator":"Northern Powergrid","latitude":54.5526567,"longitude":-1.3187812},{"name":"Dewar Place Grid","voltage":"275000;33000","operator":"SP Energy Networks","latitude":55.9470008,"longitude":-3.2101789},{"name":"Street Substation","voltage":"132000;33000","operator":null,"latitude":51.1311715,"longitude":-2.7529188},{"name":"Swansea West Grid Substation","voltage":"132000;33000","operator":"National Grid Electricity Distribution Plc","latitude":51.6275466,"longitude":-3.9814106},{"name":"Jordanthorpe Substation","voltage":"275000;33000","operator":null,"latitude":53.3296672,"longitude":-1.4584051},{"name":"Portishead Substation","voltage":"132000","operator":null,"latitude":51.4889508,"longitude":-2.7449633},{"name":"Livingston East Substation","voltage":"132000;33000","operator":"SP Energy Networks","latitude":55.8824683,"longitude":-3.4926788},{"name":null,"voltage":"132000","operator":"Electricity North West","latitude":53.6168655,"longitude":-2.6895191},{"name":null,"voltage":"132000","operator":"SP Energy Networks","latitude":53.4462915,"longitude":-2.6039319},{"name":"Ayr Substation","voltage":"275000;33000","operator":null,"latitude":55.4573514,"longitude":-4.5879603},{"name":null,"voltage":"132000","operator":null,"latitude":50.7746952,"longitude":-1.6312484},{"name":null,"voltage":"132000;33000","operator":"SSE","latitude":50.731504,"longitude":-1.9125975},{"name":"Farr Wind Farm Substation","voltage":"132000","operator":null,"latitude":57.3361458,"longitude":-4.1603693},{"name":"Foyers Substation","voltage":"275000","operator":"SSEN Transmission","latitude":57.2685913,"longitude":-4.4741437},{"name":"Shrewsbury Substation","voltage":"400000;132000;33000","operator":"National Grid","latitude":52.7093455,"longitude":-2.6930004},{"name":"Kings Yard Substation","voltage":"132000;11000","operator":"UK Power Networks","latitude":51.5433943,"longitude":-0.0191827},{"name":null,"voltage":"132000;33000","operator":null,"latitude":51.2310587,"longitude":-2.3048756},{"name":"Bishop's Stortford Substation","voltage":"132000;33000","operator":null,"latitude":51.878298,"longitude":0.1417322},{"name":"Castle Bromwich Substation","voltage":"132000;11000","operator":"National Grid Electricity Distribution Plc","latitude":52.5261938,"longitude":-1.7817331},{"name":"Redmoss Grid Supply Point","voltage":"132000;33000","operator":"Scottish and Southern Electricity Networks","latitude":57.1084654,"longitude":-2.0916436},{"name":"Radstock Substation","voltage":"132000;33000","operator":"National Grid Electricity Distribution Plc","latitude":51.2907598,"longitude":-2.5085719},{"name":"Shin","voltage":"132000","operator":"SSEN Transmission","latitude":57.9432436,"longitude":-4.4133123},{"name":"Ryeford","voltage":"132000;33000;11000","operator":"National Grid Electricity Distribution","latitude":51.738731,"longitude":-2.2729902},{"name":"Newport East Primary Substation","voltage":"132000;11000","operator":"National Grid Electricity Distribution Plc","latitude":51.5870777,"longitude":-2.9843345},{"name":"Lochay Substation","voltage":"132000","operator":null,"latitude":56.4846284,"longitude":-4.364111},{"name":"Killin Substation","voltage":"132000","operator":"Scottish and Southern Electricity Networks","latitude":56.4769793,"longitude":-4.3294935},{"name":null,"voltage":"132000","operator":null,"latitude":56.3954509,"longitude":-4.1235153},{"name":null,"voltage":"132000","operator":"Scottish and Southern Electricity Networks","latitude":51.5542517,"longitude":-1.8111444},{"name":null,"voltage":"132000","operator":null,"latitude":51.5822934,"longitude":-1.8217657},{"name":"Skegness Substation","voltage":"132000;33000","operator":"National Grid Electricity Distribution Plc","latitude":53.1405485,"longitude":0.260903},{"name":"Cupar","voltage":"132000","operator":null,"latitude":56.3135667,"longitude":-3.0358475},{"name":null,"voltage":"132000;33000","operator":null,"latitude":52.5482536,"longitude":0.0748833},{"name":"Peterhead Substation","voltage":"275000;132000","operator":"Scottish and Southern Energy plc","latitude":57.4737557,"longitude":-1.7993215},{"name":"West George Street Substation","voltage":"275000;33000","operator":"SP Energy Networks","latitude":55.8632262,"longitude":-4.2660868},{"name":"Whitegate Substation","voltage":"275000;132000","operator":"National Grid Electricity Transmission","latitude":53.5287729,"longitude":-2.1672085},{"name":"Ballycronan More HVDC Static Inverter Plant","voltage":"275000;250000","operator":"Mutual Energy","latitude":54.8432016,"longitude":-5.7704674},{"name":"Ballylumford 275kV Substation","voltage":"275000","operator":"NIE Networks","latitude":54.8451971,"longitude":-5.7840555},{"name":null,"voltage":"132000","operator":null,"latitude":50.9164636,"longitude":-1.0247065},{"name":"Spalding Substation","voltage":"132000;33000;11000","operator":"National Grid Electricity Distribution","latitude":52.7729312,"longitude":-0.142064},{"name":"Banbury Substation","voltage":"132000;66000;11000","operator":null,"latitude":52.0702551,"longitude":-1.3355808},{"name":"Bowhays Cross Substation","voltage":"132000;33000;11000","operator":"National Grid Electricity Distribution","latitude":51.1585925,"longitude":-3.3399057},{"name":"Truro Substation","voltage":"132000;33000","operator":"National Grid Electricity Distribution Plc","latitude":50.2842703,"longitude":-5.0855344},{"name":"Basildon Grid","voltage":"132000;33000;25000","operator":"UK Power Networks","latitude":51.5656043,"longitude":0.3913931},{"name":"Goddards Green Grid","voltage":"132000","operator":null,"latitude":50.9652884,"longitude":-0.157663},{"name":"Kells 275kV Substation","voltage":"275000","operator":"NIE Networks","latitude":54.8014668,"longitude":-6.167332},{"name":"Nunthorpe 400KV Cable Compound","voltage":"400000","operator":"National Grid Electricity Transmission","latitude":54.5245644,"longitude":-1.1607243},{"name":null,"voltage":"400000","operator":null,"latitude":53.3314339,"longitude":-2.3213061},{"name":null,"voltage":"400000","operator":null,"latitude":53.3279946,"longitude":-2.3074457},{"name":"Stanah Substation","voltage":"132000","operator":"National Grid","latitude":53.8796233,"longitude":-2.9899229},{"name":"Rugeley Substation","voltage":"400000","operator":"National Grid","latitude":52.7566769,"longitude":-1.914974},{"name":"Lichfield Substation","voltage":"132000;11000","operator":"National Grid Electricity Distribution Plc","latitude":52.6980395,"longitude":-1.8174485},{"name":"Cambridge Arms Switching Station","voltage":"132000","operator":null,"latitude":51.7415239,"longitude":-2.3812759},{"name":"Bradford West Substation","voltage":"400000;275000;132000","operator":"National Grid","latitude":53.8103656,"longitude":-1.8659921},{"name":"Penisarwaun Cable Compound","voltage":"400000","operator":"National Grid Electricity Transmission","latitude":53.1501077,"longitude":-4.1704495},{"name":"Wern 400KV Cable Compound","voltage":"400000","operator":"National Grid Electricity Transmission","latitude":52.9391002,"longitude":-4.1687269},{"name":"Langley Substation","voltage":"132000;33000","operator":null,"latitude":50.8101595,"longitude":-1.3600238},{"name":null,"voltage":"132000","operator":"Southern Electric Power Distribution","latitude":50.7858126,"longitude":-1.3543454},{"name":"Coylton Substation","voltage":"275000;132000","operator":"SP Energy Networks","latitude":55.4468146,"longitude":-4.4319768},{"name":null,"voltage":"275000","operator":null,"latitude":55.456273,"longitude":-4.4454919},{"name":"Fourstones Substation","voltage":"275000;33000;20500","operator":"National Grid","latitude":55.0117894,"longitude":-2.1639173},{"name":"Linnmill Substation","voltage":"132000","operator":"SP Transmission","latitude":55.6715332,"longitude":-3.8263989},{"name":"Coalburn Substation","voltage":"400000;132000","operator":"SP Transmission","latitude":55.6153625,"longitude":-3.8673287},{"name":"Strathaven Substation","voltage":"275000;132000","operator":null,"latitude":55.7536442,"longitude":-4.0807905},{"name":"Kilmarnock Town Substation","voltage":"275000","operator":null,"latitude":55.5978394,"longitude":-4.4954762},{"name":"Maybole Substation","voltage":"132000","operator":"SP Energy Networks","latitude":55.3422526,"longitude":-4.6854232},{"name":"Neilston Substation","voltage":"275000","operator":"SP Energy Networks","latitude":55.8089863,"longitude":-4.4782737},{"name":"Carradale Substation","voltage":"132000","operator":"SP Transmission","latitude":55.5902625,"longitude":-5.5026404},{"name":"Port Ann Substation","voltage":"132000","operator":"SSEN Transmission","latitude":56.0283101,"longitude":-5.3565362},{"name":"Penrith Newtongate Substation","voltage":"132000;33000","operator":"Electricity North West","latitude":54.6663141,"longitude":-2.7775258},{"name":"Camborne Substation","voltage":"132000;33000","operator":"National Grid Electricity Distribution","latitude":50.228919,"longitude":-5.2798385},{"name":"Medway Substation","voltage":"400000","operator":null,"latitude":51.4447674,"longitude":0.715789},{"name":"Kings Lynn Power Station","voltage":"132000","operator":null,"latitude":52.726517,"longitude":0.3786287},{"name":"High Marnham Substation","voltage":"400000;275000","operator":null,"latitude":53.2280978,"longitude":-0.7937413},{"name":"Bispham Substation","voltage":"132000","operator":"Electricity North West","latitude":53.8493668,"longitude":-3.0296363},{"name":"Fort William Substation","voltage":"132000","operator":null,"latitude":56.820951,"longitude":-5.0787258},{"name":"Fort Augustus Substation","voltage":"132000","operator":"National Grid","latitude":57.1368452,"longitude":-4.7185926},{"name":null,"voltage":"132000;33000","operator":"Scottish and Southern Electricity Networks","latitude":51.5974047,"longitude":-1.7554303},{"name":null,"voltage":"132000;33000","operator":null,"latitude":50.6956196,"longitude":-2.1210601},{"name":"Rame Substation","voltage":"132000;33000","operator":"National Grid Electricity Distribution Plc","latitude":50.1571023,"longitude":-5.1844513},{"name":"Stella South Substation","voltage":"132000","operator":null,"latitude":54.974352,"longitude":-1.7325026},{"name":"Abergavenny Grid Substation","voltage":"132000;66000;11000","operator":"National Grid Electricity Distribution Plc","latitude":51.8388453,"longitude":-3.013866},{"name":"Templeborough Substation","voltage":"275000;33000","operator":null,"latitude":53.4121576,"longitude":-1.3866313},{"name":"Monkton Grid","voltage":"132000","operator":"UK Power Networks","latitude":51.3573937,"longitude":1.2834275},{"name":"Castlereagh 275kV Substation","voltage":"275000","operator":"NIE Networks","latitude":54.5629404,"longitude":-5.8784287},{"name":"Auchencrosh Static Inverter Plant","voltage":"275000;250000","operator":"Mutual Energy","latitude":55.0696959,"longitude":-4.9807569},{"name":"Melbourn Grid Substation","voltage":"132000;33000","operator":"UK Power Networks","latitude":52.0749897,"longitude":-0.0039663},{"name":"Dun Law Wind Farm Substation","voltage":"132000","operator":null,"latitude":55.8048059,"longitude":-2.8416297},{"name":"Station Lane","voltage":"132000","operator":null,"latitude":53.7327519,"longitude":-1.537526},{"name":"Cheapside Substation","voltage":"132000","operator":null,"latitude":52.4727302,"longitude":-1.8877838},{"name":"Keighley","voltage":"132000;11000","operator":"Northern Powergrid","latitude":53.8648078,"longitude":-1.9058428},{"name":"Torquay Substation","voltage":"132000;33000","operator":"National Grid Electricity Distribution","latitude":50.4876059,"longitude":-3.5450114},{"name":"Hams Hall South Substation","voltage":"132000;11000","operator":null,"latitude":52.5246114,"longitude":-1.7180782},{"name":"Thatcham Grid Substation","voltage":"132000;33000;11000","operator":"Scottish and Southern Electricity Networks (SSEN)","latitude":51.3945118,"longitude":-1.2419887},{"name":"Hull South Substation","voltage":"132000;33000","operator":null,"latitude":53.7327895,"longitude":-0.3798786},{"name":"Kinmel Bay Substation","voltage":"132000","operator":"SP Energy Networks","latitude":53.2925444,"longitude":-3.548954},{"name":"Saltend South Substation","voltage":"275000","operator":null,"latitude":53.7369257,"longitude":-0.2427964},{"name":"Saltend North Substation","voltage":"275000;132000","operator":null,"latitude":53.7419871,"longitude":-0.2384796},{"name":"Bransholme Substation","voltage":"132000","operator":"Northern Powergrid","latitude":53.789516,"longitude":-0.3047447},{"name":"Partick Substation","voltage":"132000","operator":"SP Transmission","latitude":55.869578,"longitude":-4.3163064},{"name":null,"voltage":"132000","operator":"SP Energy Networks","latitude":55.8694862,"longitude":-4.3159504},{"name":"Lincoln Local Substation","voltage":"132000;33000","operator":"National Grid Electricity Distribution","latitude":53.2285126,"longitude":-0.5218759},{"name":"Lincoln Main Substation","voltage":"132000;33000","operator":"National Grid Electricity Distribution","latitude":53.2286374,"longitude":-0.5183296},{"name":"Dudley Substation","voltage":"132000;11000","operator":null,"latitude":52.506836,"longitude":-2.0995328},{"name":"Lye Substation","voltage":"132000;11000","operator":"National Grid Electricity Distribution Plc","latitude":52.4597263,"longitude":-2.1225645},{"name":"Sleaford Substation","voltage":"132000;33000;11000","operator":"National Grid Electricity Distribution","latitude":52.9913954,"longitude":-0.4057975},{"name":"Immingham Substation","voltage":"132000","operator":"Northern Power Grid","latitude":53.6153458,"longitude":-0.1922377},{"name":"Birkenhead Substation","voltage":"275000;132000","operator":"SP Energy Networks","latitude":53.3658148,"longitude":-3.0618051},{"name":"Lytchett Substation","voltage":"132000;33000","operator":null,"latitude":50.7475187,"longitude":-2.0325835},{"name":"Hamworthy Substation","voltage":"132000","operator":"SSE Power Distribution","latitude":50.7168109,"longitude":-1.9988277},{"name":"Organford off A35 near Upton","voltage":"132000","operator":null,"latitude":50.7318795,"longitude":-2.0757818},{"name":null,"voltage":"132000","operator":null,"latitude":50.9132736,"longitude":-2.5712938},{"name":null,"voltage":"132000","operator":null,"latitude":50.718869,"longitude":-2.0188828},{"name":null,"voltage":"132000;33000","operator":null,"latitude":51.013362,"longitude":-2.2087692},{"name":"Cheltenham substation","voltage":"132000;66000;11000","operator":"National Grid Electricity Distribution","latitude":51.9085683,"longitude":-2.1204475},{"name":"Marle Hill Substation","voltage":"132000;66000;11000","operator":"National Grid Electricity Distribution","latitude":51.9104819,"longitude":-2.0825028},{"name":"Ring Rd Horsforth","voltage":"132000","operator":null,"latitude":53.8362877,"longitude":-1.6153899},{"name":"Spadeadam Substation","voltage":"132000;33000","operator":null,"latitude":55.0262056,"longitude":-2.606767},{"name":"Leyland Substation","voltage":"132000;33000","operator":"Electricity North West","latitude":53.704802,"longitude":-2.6966184},{"name":"Llanelli Primary Substation","voltage":"132000;33000;11000","operator":"National Grid Electricity Distribution Plc","latitude":51.6773184,"longitude":-4.1736808},{"name":"Morehall Grid","voltage":"132000","operator":null,"latitude":51.0854925,"longitude":1.1505732},{"name":"St Asaph Substation","voltage":"132000","operator":"SP Energy Networks","latitude":53.2565546,"longitude":-3.4690402},{"name":"Brinsworth Substation","voltage":"400000;275000","operator":"National Grid","latitude":53.4014038,"longitude":-1.3512492},{"name":"Rednal Substation","voltage":"132000;11000","operator":null,"latitude":52.3970476,"longitude":-1.9815148},{"name":"Grimsby West Substation","voltage":"400000;132000","operator":null,"latitude":53.5658233,"longitude":-0.151464},{"name":"Legacy Grid Substation","voltage":"132000;33000","operator":"Scottish Power","latitude":53.023638,"longitude":-3.0573273},{"name":"Drax","voltage":"400000","operator":"National Grid","latitude":53.7362186,"longitude":-0.9924905},{"name":"Doncaster B 132/66 kV","voltage":"132000;66000","operator":null,"latitude":53.5259784,"longitude":-1.1468927},{"name":"Greater Gabbard Onshore Substation","voltage":"132000","operator":null,"latitude":52.2085457,"longitude":1.6108776},{"name":"Aldwarke Substation","voltage":"275000","operator":"National Grid Electricity Transmission","latitude":53.4454856,"longitude":-1.3206091},{"name":"Wolverhampton West Substation","voltage":"132000","operator":null,"latitude":52.5731752,"longitude":-2.1859466},{"name":"St Andrews Cross Substation","voltage":"132000;33000;25000","operator":"SP Energy Networks","latitude":55.8441932,"longitude":-4.2600871},{"name":"Smethwick Substation","voltage":"132000;33000;11000","operator":"National Grid Electricity Distribution Plc","latitude":52.5074542,"longitude":-1.9694346},{"name":"Meadowhead","voltage":"132000","operator":null,"latitude":55.5841073,"longitude":-4.6381708},{"name":"Drumchapel","voltage":"275000","operator":"SP Energy Networks","latitude":55.9155428,"longitude":-4.3492396},{"name":"Carntyne Substation","voltage":"132000;33000;25000","operator":"SP Energy Networks","latitude":55.8572913,"longitude":-4.1971749},{"name":"Rochdale Substation","voltage":"400000;275000;132000","operator":"National Grid Electricity Transmission","latitude":53.6218119,"longitude":-2.215915},{"name":"Chelsfield Grid","voltage":"132000;33000","operator":null,"latitude":51.345178,"longitude":0.1403941},{"name":"Inverarnan Substation","voltage":"132000","operator":"SSEN Transmission","latitude":56.3253214,"longitude":-4.7244502},{"name":"Wem Substation","voltage":"132000;33000;11000","operator":"SP Energy Networks","latitude":52.857371,"longitude":-2.7386118},{"name":"Elland Substation","voltage":"275000;132000","operator":null,"latitude":53.6943967,"longitude":-1.8227449},{"name":"Silsden","voltage":"132000","operator":null,"latitude":53.9089678,"longitude":-1.9236856},{"name":"Holmfield","voltage":"132000","operator":null,"latitude":53.7506874,"longitude":-1.8750257},{"name":"Tongland Substation","voltage":"132000","operator":null,"latitude":54.8608222,"longitude":-4.035153},{"name":"Busby Substation","voltage":"275000","operator":null,"latitude":55.774331,"longitude":-4.2622896},{"name":"Lambhill Substation","voltage":"275000","operator":"SP Energy Networks","latitude":55.9030425,"longitude":-4.2567333},{"name":"East Kilbride Substation","voltage":"275000","operator":"SP Energy Networks","latitude":55.7858906,"longitude":-4.1938793},{"name":"Blackhillock Substation","voltage":"400000;275000;132000","operator":null,"latitude":57.5232271,"longitude":-2.9485392},{"name":"Hannahstown 275kV Substation","voltage":"275000","operator":"NIE Networks","latitude":54.5747551,"longitude":-6.0273784},{"name":"Birchfield Lane Substation","voltage":"132000;11000","operator":"National Grid Electricity Distribution","latitude":52.49315,"longitude":-2.0226448},{"name":"Oldbury A Transmission Compound (Oldbury Substation)","voltage":"400000;275000;132000","operator":"National Grid Electricity Transmission","latitude":52.4986276,"longitude":-2.0231082},{"name":"Greatham Substation","voltage":"132000;11000","operator":"Northern Powergrid","latitude":54.6279229,"longitude":-1.2085683},{"name":"Union Road Substation","voltage":"132000","operator":"Electricity North West","latitude":53.5913101,"longitude":-2.4207475},{"name":"St Andrews Road","voltage":"132000","operator":null,"latitude":53.651079,"longitude":-1.772656},{"name":"Beeston Royds Grid","voltage":"132000;33000","operator":"Northern Powergrid","latitude":53.7758622,"longitude":-1.5837831},{"name":"BLOOM ST GRID","voltage":"132000","operator":null,"latitude":53.4759617,"longitude":-2.2395853},{"name":null,"voltage":"132000","operator":null,"latitude":53.5143869,"longitude":-2.5120874},{"name":"Castleton","voltage":"132000","operator":null,"latitude":53.5976318,"longitude":-2.1771652},{"name":"Royton","voltage":"132000","operator":null,"latitude":53.5648941,"longitude":-2.1149144},{"name":"Pontyclun Primary Substation","voltage":"132000;11000","operator":"National Grid Electricity Distribution Plc","latitude":51.528718,"longitude":-3.3993475},{"name":null,"voltage":"132000","operator":null,"latitude":54.1064119,"longitude":-3.1904749},{"name":null,"voltage":"132000","operator":null,"latitude":54.1907279,"longitude":-3.1125275},{"name":null,"voltage":"132000","operator":null,"latitude":54.2914631,"longitude":-2.7376996},{"name":"Andover Grid Substation","voltage":"132000;33000","operator":"Scottish and Southern Electricity Networks (SSEN)","latitude":51.2174672,"longitude":-1.4953899},{"name":null,"voltage":"132000","operator":null,"latitude":53.4710273,"longitude":-2.351304},{"name":"Paignton Substation","voltage":"132000;33000;11000","operator":"National Grid Electricity Distribution","latitude":50.4212796,"longitude":-3.5899739},{"name":"Girlington","voltage":"132000;33000","operator":"Northern Powergrid","latitude":53.7955129,"longitude":-1.7904324},{"name":"Reading Main Substation","voltage":"132000","operator":"Scottish and Southern Electricity Networks","latitude":51.4587918,"longitude":-0.9270477},{"name":null,"voltage":"132000","operator":null,"latitude":51.5743816,"longitude":-1.318827},{"name":null,"voltage":"132000","operator":null,"latitude":54.0234592,"longitude":-2.8892738},{"name":"Totnes BSP Substation","voltage":"132000;33000","operator":"National Grid Electricity Distribution Plc","latitude":50.4439304,"longitude":-3.727532},{"name":"Leeds North Substation","voltage":"132000;33000","operator":"Northern Powergrid","latitude":53.8138648,"longitude":-1.5419363},{"name":"Derby Substation","voltage":"132000;33000;11000","operator":"National Grid Electricity Distribution","latitude":52.9257882,"longitude":-1.4763543},{"name":"Ernesettle Substation","voltage":"132000;33000","operator":null,"latitude":50.422797,"longitude":-4.1881875},{"name":"Kilbowie","voltage":"132000;33000;11000","operator":"SP Energy Networks","latitude":55.9188966,"longitude":-4.410127},{"name":"Westferry Circus Substation","voltage":"132000;11000","operator":"UK Power Networks","latitude":51.5070063,"longitude":-0.0263105},{"name":"West Boldon Substation","voltage":"275000;66000","operator":"Northern Powergrid","latitude":54.94007,"longitude":-1.4707906},{"name":"St Tudy Substation","voltage":"132000;33000;11000","operator":"National Grid Electricity Distribution","latitude":50.5353369,"longitude":-4.7224151},{"name":"South Shields","voltage":"275000;33000","operator":null,"latitude":54.973398,"longitude":-1.4495658},{"name":"Sheriff Hutton 1064","voltage":"132000;66000","operator":null,"latitude":54.0945035,"longitude":-1.0358105},{"name":"Knapton Substation","voltage":"132000","operator":null,"latitude":54.1816661,"longitude":-0.6416679},{"name":"Knaresborough","voltage":"275000","operator":null,"latitude":54.0312652,"longitude":-1.487627},{"name":"Wormald Green Substation","voltage":"132000;33000;11000","operator":null,"latitude":54.0749183,"longitude":-1.5218136},{"name":"Driffield Substation","voltage":"132000;66000","operator":null,"latitude":53.9994104,"longitude":-0.4167572},{"name":"Moss Nook","voltage":"132000","operator":null,"latitude":53.3617747,"longitude":-2.2410476},{"name":"Malton Substation","voltage":"132000;66000","operator":"Northern Powergrid","latitude":54.1506745,"longitude":-0.7812777},{"name":"King Henry's Walk Substation","voltage":"132000;66000;11000","operator":"UK Power Networks","latitude":51.5470924,"longitude":-0.0827392},{"name":"St Germans Substation","voltage":"132000;33000","operator":"National Grid Electricity Distribution","latitude":50.4179384,"longitude":-4.3732261},{"name":"Bicker Fen Substation","voltage":"400000;132000","operator":"National Grid Electricity Transmission","latitude":52.9314045,"longitude":-0.2209349},{"name":"Leeming Bar","voltage":"132000;33000","operator":"Northern Powergrid","latitude":54.3277816,"longitude":-1.5593693},{"name":null,"voltage":"132000;33000;11000","operator":null,"latitude":51.4025056,"longitude":-0.8570581},{"name":null,"voltage":"400000","operator":null,"latitude":53.7155905,"longitude":-1.2851109},{"name":null,"voltage":"400000","operator":null,"latitude":53.7157344,"longitude":-1.2905632},{"name":null,"voltage":"275000","operator":null,"latitude":53.7236319,"longitude":-1.2820152},{"name":"Coalville Substation","voltage":"132000;33000;11000","operator":"National Grid Electricity Distribution Plc","latitude":52.6882725,"longitude":-1.3270946},{"name":"Ferrybridge C Substation","voltage":"275000","operator":"National Grid","latitude":53.7178854,"longitude":-1.28284},{"name":"Lytham Substation","voltage":"132000","operator":"Electricity North West","latitude":53.7564229,"longitude":-2.9819416},{"name":null,"voltage":"132000","operator":"Electricity North West","latitude":53.7810458,"longitude":-2.9798775},{"name":"Crowlands Substation","voltage":"132000;33000;25000","operator":"UK Power Networks","latitude":51.5690231,"longitude":0.1592559},{"name":"Hendon Grid","voltage":"132000;33000","operator":"UK Power Networks","latitude":51.5943563,"longitude":-0.2576489},{"name":"Hendon 132kV","voltage":"132000","operator":"UK Power Networks","latitude":51.5949696,"longitude":-0.2579999},{"name":"Wold Newton","voltage":"132000;33000","operator":null,"latitude":53.4787385,"longitude":-0.1695863},{"name":"Hirwaun Grid Substation","voltage":"132000;33000;11000","operator":"National Grid Electricity Distribution Plc","latitude":51.7410336,"longitude":-3.5375553},{"name":"Hawthorn Pit Substation","voltage":"275000;66000","operator":"National Grid","latitude":54.8049826,"longitude":-1.404866},{"name":"Worthing Substation","voltage":"132000","operator":"UK Power Networks","latitude":50.8222215,"longitude":-0.3537949},{"name":"Offerton","voltage":"275000;33000","operator":null,"latitude":54.8809351,"longitude":-1.4577705},{"name":"Drax","voltage":"132000","operator":null,"latitude":53.7324903,"longitude":-0.9925409},{"name":"Low Road Grid","voltage":"132000;33000","operator":"Northern Powergrid","latitude":53.7801424,"longitude":-1.5232732},{"name":"Staygate","voltage":"132000","operator":null,"latitude":53.7666809,"longitude":-1.7492572},{"name":"Sculcoates B","voltage":"132000","operator":"Northen Power Grid","latitude":53.7659168,"longitude":-0.3437853},{"name":"Great Yarmouth Grid Substation","voltage":"132000;33000","operator":"UK Power Networks","latitude":52.5917495,"longitude":1.7308328},{"name":"Belfield","voltage":"132000","operator":null,"latitude":53.6221261,"longitude":-2.1373757},{"name":"Rochdale Central","voltage":"132000","operator":null,"latitude":53.6164773,"longitude":-2.1660305},{"name":"Hartford Substation","voltage":"132000","operator":null,"latitude":53.2380867,"longitude":-2.5497553},{"name":"Willenhall Substation","voltage":"132000;33000;11000","operator":"National Grid Electricity Distribution","latitude":52.5764832,"longitude":-2.0600162},{"name":"Willenhall Substation","voltage":"275000","operator":null,"latitude":52.5778407,"longitude":-2.049301},{"name":"Hunshelf Substation","voltage":"132000;66000","operator":"NPG","latitude":53.4955543,"longitude":-1.6046747},{"name":"Yarborough Road Substation","voltage":"132000;33000","operator":"Northern Powergrid","latitude":53.5658055,"longitude":-0.1089894},{"name":"Killingholme Substation","voltage":"400000","operator":null,"latitude":53.65581,"longitude":-0.2564177},{"name":"Blyton Substation","voltage":"132000;33000","operator":null,"latitude":53.4357607,"longitude":-0.7136839},{"name":"Stony Stratford Substation","voltage":"132000","operator":"National Grid Electricity Distribution Plc","latitude":52.0184655,"longitude":-0.8672802},{"name":"Moss Road Substation","voltage":"132000","operator":null,"latitude":53.5631896,"longitude":-0.080753},{"name":"Newton Abbott Substation","voltage":"132000;33000","operator":"National Grid Electricity Distribution","latitude":50.5308371,"longitude":-3.5959176},{"name":"Retford Substation","voltage":"132000;25000","operator":"National Grid Electricity Distribution","latitude":53.3250092,"longitude":-0.9614133},{"name":"Whitwell Substation","voltage":"132000;33000","operator":"National Grid Electricity Distribution Plc","latitude":53.276817,"longitude":-1.2271616},{"name":"Montpellier Substation","voltage":"132000;11000","operator":"National Grid Electricity Distribution","latitude":51.8927979,"longitude":-2.0844251},{"name":"Hornchurch Substation","voltage":"132000","operator":"UK Power Networks","latitude":51.5595829,"longitude":0.2249538},{"name":"Haverfordwest Grid Substation","voltage":"132000;33000","operator":"National Grid Electricity Distribution Plc","latitude":51.8065667,"longitude":-4.9337265},{"name":"North Greetwell Switching Station","voltage":"132000","operator":null,"latitude":53.2545293,"longitude":-0.4899465},{"name":null,"voltage":"132000","operator":null,"latitude":56.3464251,"longitude":-5.2393431},{"name":null,"voltage":"132000","operator":null,"latitude":56.3379553,"longitude":-5.2109292},{"name":null,"voltage":"132000","operator":null,"latitude":52.4126945,"longitude":-3.7543119},{"name":"Whitley Substation","voltage":"132000;33000;11000","operator":null,"latitude":52.3934762,"longitude":-1.482605},{"name":"Scunthorpe South","voltage":"132000","operator":null,"latitude":53.5753453,"longitude":-0.6226589},{"name":"Harbury Grid Substation","voltage":"132000","operator":"National Grid Electricity Distribution","latitude":52.2277646,"longitude":-1.4339378},{"name":"Newby 400KV Cable Compound","voltage":"400000","operator":"National Grid Electricity Transmission","latitude":54.5040996,"longitude":-1.2295251},{"name":"Ocker Hill Substation B","voltage":"132000;33000;11000","operator":null,"latitude":52.5412975,"longitude":-2.0374961},{"name":"Bracknell Substation","voltage":"132000;33000;11000","operator":null,"latitude":51.4172581,"longitude":-0.7643567},{"name":"Kirkhaw Lane","voltage":"132000;33000","operator":null,"latitude":53.7198026,"longitude":-1.2770344},{"name":"Beverley","voltage":"132000;66000;33000","operator":"Northern Powergrid","latitude":53.8212182,"longitude":-0.4156865},{"name":"Blackburn Meadows B","voltage":"132000","operator":null,"latitude":53.4188487,"longitude":-1.402495},{"name":"West Melton Substation","voltage":"275000","operator":"National Grid Electricity Transmission","latitude":53.5015622,"longitude":-1.3770047},{"name":"Park Street Substation","voltage":"132000;11000","operator":"YEDL","latitude":53.4326432,"longitude":-1.3737301},{"name":"Rawmarsh Road Substation","voltage":"132000;11000","operator":"YEDL","latitude":53.4364434,"longitude":-1.3561743},{"name":"Wishaw substation","voltage":"275000;132000;33000;25000","operator":null,"latitude":55.7644355,"longitude":-3.928469},{"name":"Staveley Substation","voltage":"132000;33000;11000","operator":"National Grid Electricity Distribution","latitude":53.2669878,"longitude":-1.3856607},{"name":"Glenlee Substation","voltage":"132000","operator":null,"latitude":55.0991643,"longitude":-4.1854604},{"name":"Moore Substation","voltage":"132000","operator":"Scottish Power","latitude":53.3440887,"longitude":-2.6655364},{"name":"Coupar Angus Substation","voltage":"132000;33000","operator":"SSE Scottish Hydro","latitude":56.5383189,"longitude":-3.2734851},{"name":"Nottingham North Substation","voltage":"132000;33000;11000","operator":null,"latitude":52.9784965,"longitude":-1.1733529},{"name":"Grantham South Substation","voltage":"132000;11000","operator":"National Grid Electricity Distribution","latitude":52.9040117,"longitude":-0.6381393},{"name":"Black Lake Substation","voltage":"132000","operator":null,"latitude":52.5307378,"longitude":-2.0061093},{"name":null,"voltage":"400000","operator":null,"latitude":52.5341712,"longitude":-1.7119841},{"name":"Toronto Substation","voltage":"132000;66000;20000","operator":null,"latitude":54.6731086,"longitude":-1.7023857},{"name":"Skeeby","voltage":"132000","operator":null,"latitude":54.4132431,"longitude":-1.7019237},{"name":"Newarthill Substation","voltage":"275000","operator":"SP Energy Networks","latitude":55.8244017,"longitude":-3.9457796},{"name":null,"voltage":"132000","operator":"NEDL","latitude":54.2648849,"longitude":-0.4145266},{"name":"Carlisle Grid","voltage":"132000;33000","operator":null,"latitude":54.8992772,"longitude":-2.9590989},{"name":"Cardiff East Grid Substation","voltage":"275000;132000;11000","operator":"National Grid Electricity Distribution Plc","latitude":51.4951056,"longitude":-3.1454216},